{"atlas_business_id": "1376324", "name": "ecoATM", "website": "https://ecoatm.com", "domain": "ecoatm.com", "phone": "2057640257", "city": "CHICAGO", "state": "IL", "lat": 41.8311660054, "lon": -87.6220194326, "category": "Secondhand Dealer", "atlas_source": "socrata_chicago", "atlas_sources": ["socrata_chicago"], "tier": 3}
{"atlas_business_id": "1367093", "name": "NEW LIFE MORTGAGE CORPORATION", "website": "https://newlife.com", "domain": "newlife.com", "phone": "3684528891", "city": "CHICAGO", "state": "IL", "lat": 41.9424992906, "lon": -87.729894499, "category": "Limited Business License", "atlas_source": "socrata_chicago", "atlas_sources": ["socrata_chicago"], "tier": 3}
{"atlas_business_id": "1367095", "name": "PANDA CLEANERS", "website": "https://pandacleaners.com", "domain": "pandacleaners.com", "phone": "2493124941", "city": "CHICAGO", "state": "IL", "lat": 41.9679160536, "lon": -87.7650803435, "category": "Limited Business License", "atlas_source": "socrata_chicago", "atlas_sources": ["socrata_chicago"], "tier": 3}
{"atlas_business_id": "1353984", "name": "SUPERIOR TABLE PAD CO", "website": "https://chicagocustomtablepads.com", "domain": "chicagocustomtablepads.com", "phone": "3125857453", "city": "CHICAGO", "state": "IL", "lat": 41.9362000857, "lon": -87.6856977169, "category": "Limited Business License", "atlas_source": "socrata_chicago", "atlas_sources": ["socrata_chicago"], "tier": 3}
{"atlas_business_id": "1354126", "name": "IMAN", "website": "https://iman.org", "domain": "iman.org", "phone": "2403545968", "city": "CHICAGO", "state": "IL", "lat": 41.7792352173, "lon": -87.6927437889, "category": "Limited Business License", "atlas_source": "socrata_chicago", "atlas_sources": ["socrata_chicago"], "tier": 3}
{"atlas_business_id": "1354120", "name": "FLORES PAINTING", "website": "https://flores-painting.com", "domain": "flores-painting.com", "phone": "2938717851", "city": "CHICAGO", "state": "IL", "lat": 42.0103607587, "lon": -87.6713202208, "category": "Home Occupation", "atlas_source": "socrata_chicago", "atlas_sources": ["socrata_chicago"], "tier": 3}
{"atlas_business_id": "1354124", "name": "SPECIMEN PRODUCTS", "website": "https://specimenproducts.com", "domain": "specimenproducts.com", "phone": "2659090043", "city": "CHICAGO", "state": "IL", "lat": 41.9039966116, "lon": -87.7118609566, "category": "Limited Business License", "atlas_source": "socrata_chicago", "atlas_sources": ["socrata_chicago"], "tier": 3}
{"atlas_business_id": "1354130", "name": "CITY SPORTS", "website": "https://city-sports.org", "domain": "city-sports.org", "phone": "2002560698", "city": "CHICAGO", "state": "IL", "lat": 41.9094935508, "lon": -87.747823796, "category": "Limited Business License", "atlas_source": "socrata_chicago", "atlas_sources": ["socrata_chicago"], "tier": 3}
{"atlas_business_id": "1354127", "name": "Advanced Comfort HVAC", "website": "https://advancedcomfort.org", "domain": "advancedcomfort.org", "phone": null, "city": "CHICAGO", "state": "IL", "lat": 41.9677780057, "lon": -87.7761192221, "category": "Limited Business License", "atlas_source": "socrata_chicago", "atlas_sources": ["socrata_chicago"], "tier": 3}
{"atlas_business_id": "1354131", "name": "SOUTHSIDE HEARING AID CENTER", "website": "https://southsidehearingcenter.com", "domain": "southsidehearingcenter.com", "phone": "2002007762", "city": "CHICAGO", "state": "IL", "lat": 41.7774314055, "lon": -87.790182973, "category": "Limited Business License", "atlas_source": "socrata_chicago", "atlas_sources": ["socrata_chicago"], "tier": 3}
{"atlas_business_id": "1354129", "name": "T & J ENTERPRISE", "website": "https://enterprise.com", "domain": "enterprise.com", "phone": "2288423360", "city": "CHICAGO", "state": "IL", "lat": 41.9020194318, "lon": -87.6967100049, "category": "Limited Business License", "atlas_source": "socrata_chicago", "atlas_sources": ["socrata_chicago"], "tier": 3}
{"atlas_business_id": "1352148", "name": "OAK PARK & BELMONT CYX INC", "website": "https://oakpark.com", "domain": "oakpark.com", "phone": "2131082986", "city": "CHICAGO", "state": "IL", "lat": 41.9382704388, "lon": -87.7955608083, "category": "Limited Business License", "atlas_source": "socrata_chicago", "atlas_sources": ["socrata_chicago"], "tier": 3}
{"atlas_business_id": "1352162", "name": "ELEGANT BEAUTY SALON", "website": "https://elegantbeautysalon.net", "domain": "elegantbeautysalon.net", "phone": "2979062979", "city": "CHICAGO", "state": "IL", "lat": 41.8453963447, "lon": -87.6333973901, "category": "Limited Business License", "atlas_source": "socrata_chicago", "atlas_sources": ["socrata_chicago"], "tier": 3}
