{"atlas_business_id": "1382854", "name": "TRADER JOE'S #706", "website": "https://traderjoe.com", "domain": "traderjoe.com", "phone": "2021062308", "city": "CHICAGO", "state": "IL", "lat": 41.7953009591, "lon": -87.5881970893, "category": "Retail Food Establishment", "atlas_source": "socrata_chicago", "atlas_sources": ["socrata_chicago"], "tier": 3}
{"atlas_business_id": "1378974", "name": "CHICAGO VINTAGE MOTOR CARRIAGE", "website": "https://chicagovintage.com", "domain": "chicagovintage.com", "phone": "3126971103", "city": "CHICAGO", "state": "IL", "lat": 41.8734506529, "lon": -87.6440073461, "category": "Limited Business License", "atlas_source": "socrata_chicago", "atlas_sources": ["socrata_chicago"], "tier": 3}
{"atlas_business_id": "1366932", "name": "Diplomat", "website": "https://diplomat.com", "domain": "diplomat.com", "phone": null, "city": "CHICAGO", "state": "IL", "lat": 41.9402281368, "lon": -87.6542634882, "category": "Single Room Occupancy Class II", "atlas_source": "socrata_chicago", "atlas_sources": ["socrata_chicago"], "tier": 3}
{"atlas_business_id": "1366934", "name": "GARCIA'S PALLETS", "website": "https://garciapallets.com", "domain": "garciapallets.com", "phone": "8568853709", "city": "CHICAGO", "state": "IL", "lat": 41.8638230834, "lon": -87.7371824587, "category": "Hazardous Materials", "atlas_source": "socrata_chicago", "atlas_sources": ["socrata_chicago"], "tier": 3}
{"atlas_business_id": "1354811", "name": "Ricoh USA, Inc.", "website": "https://ricoh-usa.com", "domain": "ricoh-usa.com", "phone": "2296081052", "city": "CHICAGO", "state": "IL", "lat": 41.8832343478, "lon": -87.6366490619, "category": "Limited Business License", "atlas_source": "socrata_chicago", "atlas_sources": ["socrata_chicago"], "tier": 3}
{"atlas_business_id": "1354812", "name": "METRO SPACE, INC.", "website": "https://metro-space.com", "domain": "metro-space.com", "phone": null, "city": "CHICAGO", "state": "IL", "lat": 41.8924576939, "lon": -87.6221880136, "category": "Limited Business License", "atlas_source": "socrata_chicago", "atlas_sources": ["socrata_chicago"], "tier": 3}
{"atlas_business_id": "1354802", "name": "H & R BLOCK TAX SERVICES, INC.", "website": "https://blocktax.org", "domain": "blocktax.org", "phone": "2036771074", "city": "CHICAGO", "state": "IL", "lat": 41.7800122156, "lon": -87.664087223, "category": "Limited Business License", "atlas_source": "socrata_chicago", "atlas_sources": ["socrata_chicago"], "tier": 3}
{"atlas_business_id": "1354782", "name": "KJ ELECTRIC, INC.", "website": "https://kjelectric.com", "domain": "kjelectric.com", "phone": "3154545535", "city": "CHICAGO", "state": "IL", "lat": 41.8999629387, "lon": -87.6584131682, "category": "Limited Business License", "atlas_source": "socrata_chicago", "atlas_sources": ["socrata_chicago"], "tier": 3}
