{"atlas_business_id": "1367418", "name": "STORAGE TODAY", "website": "https://storagetoday.com", "domain": "storagetoday.com", "phone": "3950053778", "city": "CHICAGO", "state": "IL", "lat": 41.8529434625, "lon": -87.641348277, "category": "Limited Business License", "atlas_source": "socrata_chicago", "atlas_sources": ["socrata_chicago"], "tier": 3}
{"atlas_business_id": "1367523", "name": "STONE EDGE INC", "website": "https://stoneedge.com", "domain": "stoneedge.com", "phone": "2090424721", "city": "CHICAGO", "state": "IL", "lat": 41.8898203928, "lon": -87.6777578681, "category": "Home Repair", "atlas_source": "socrata_chicago", "atlas_sources": ["socrata_chicago"], "tier": 3}
{"atlas_business_id": "1364741", "name": "VARGAS ARTS", "website": "https://vargasarts.com", "domain": "vargasarts.com", "phone": null, "city": "CHICAGO", "state": "IL", "lat": 41.8611260715, "lon": -87.6860298654, "category": "Limited Business License", "atlas_source": "socrata_chicago", "atlas_sources": ["socrata_chicago"], "tier": 3}
{"atlas_business_id": "1364740", "name": "ANN C. LOGUE", "website": "https://annlogue.com", "domain": "annlogue.com", "phone": "4061877390", "city": "CHICAGO", "state": "IL", "lat": 41.9498955865, "lon": -87.6712233457, "category": "Home Occupation", "atlas_source": "socrata_chicago", "atlas_sources": ["socrata_chicago"], "tier": 3}
{"atlas_business_id": "1354551", "name": "THE KITCHEN SHOP", "website": "https://kitchendoorworkshop.co.uk", "domain": "kitchendoorworkshop.co.uk", "phone": "2934232825", "city": "CHICAGO", "state": "IL", "lat": 41.7658896414, "lon": -87.5840319865, "category": "Limited Business License", "atlas_source": "socrata_chicago", "atlas_sources": ["socrata_chicago"], "tier": 3}
