{"atlas_business_id": "1376826", "name": "Bloomingdale's", "website": "https://bloomingdale.net", "domain": "bloomingdale.net", "phone": null, "city": "CHICAGO", "state": "IL", "lat": 41.899248597, "lon": -87.6242749782, "category": "Limited Business License", "atlas_source": "socrata_chicago", "atlas_sources": ["socrata_chicago"], "tier": 3}
{"atlas_business_id": "1376831", "name": "HAPPY MONDAY COFFEE", "website": "https://happymonday.net", "domain": "happymonday.net", "phone": null, "city": "CHICAGO", "state": "IL", "lat": 41.8946980943, "lon": -87.6328208307, "category": "Retail Food Establishment", "atlas_source": "socrata_chicago", "atlas_sources": ["socrata_chicago"], "tier": 3}
{"atlas_business_id": "1367722", "name": "OAK PARK & BELMONT CYX INC", "website": "https://oakpark.com", "domain": "oakpark.com", "phone": "2131082986", "city": "CHICAGO", "state": "IL", "lat": 41.9382704388, "lon": -87.7955608083, "category": "Limited Business License", "atlas_source": "socrata_chicago", "atlas_sources": ["socrata_chicago"], "tier": 3}
{"atlas_business_id": "1367185", "name": "ALLIED BUILDING PRODUCTS CORPORATION", "website": "https://alliedbuilding.org", "domain": "alliedbuilding.org", "phone": "2126975553", "city": "CHICAGO", "state": "IL", "lat": 41.9428439365, "lon": -87.715239473, "category": "Limited Business License", "atlas_source": "socrata_chicago", "atlas_sources": ["socrata_chicago"], "tier": 3}
{"atlas_business_id": "1364914", "name": "FAIR MUFFLER SHOP", "website": "https://fairmufflershop.com", "domain": "fairmufflershop.com", "phone": "2127659574", "city": "CHICAGO", "state": "IL", "lat": 42.0086769623, "lon": -87.6900165766, "category": "Motor Vehicle Repair : Engine Only (Class II)", "atlas_source": "socrata_chicago", "atlas_sources": ["socrata_chicago"], "tier": 3}
{"atlas_business_id": "1354756", "name": "SREJOVIC ACCOUNTING SERVICE", "website": "https://srejovicaccounting.com", "domain": "srejovicaccounting.com", "phone": "2545352419", "city": "CHICAGO", "state": "IL", "lat": 41.9683269291, "lon": -87.7303413599, "category": "Limited Business License", "atlas_source": "socrata_chicago", "atlas_sources": ["socrata_chicago"], "tier": 3}
