{"atlas_business_id": "1380996", "name": "CHICAGO PAINTING SPECIALIST", "website": "https://chicagopaintingspecialist.net", "domain": "chicagopaintingspecialist.net", "phone": "2545352419", "city": "ELMWOOD PARK", "state": "IL", "lat": null, "lon": null, "category": "Regulated Business License", "atlas_source": "socrata_chicago", "atlas_sources": ["socrata_chicago"], "tier": 3}
{"atlas_business_id": "1377205", "name": "BROWN & MOMEN ASSOC., INC.", "website": "https://brownmomen.com", "domain": "brownmomen.com", "phone": "6193663929", "city": "CHICAGO", "state": "IL", "lat": 41.8012895319, "lon": -87.6053968293, "category": "Regulated Business License", "atlas_source": "socrata_chicago", "atlas_sources": ["socrata_chicago"], "tier": 3}
{"atlas_business_id": "1355033", "name": "RAYEES INC.", "website": "https://rayees.com", "domain": "rayees.com", "phone": "2463450695", "city": "CHICAGO", "state": "IL", "lat": 41.9976382909, "lon": -87.6887989868, "category": "Limited Business License", "atlas_source": "socrata_chicago", "atlas_sources": ["socrata_chicago"], "tier": 3}
{"atlas_business_id": "1354916", "name": "CHAPPELL CONSTRUCTION INC", "website": "https://chappellconstruction.com", "domain": "chappellconstruction.com", "phone": "2923600157", "city": "CHICAGO", "state": "IL", "lat": 41.8171874488, "lon": -87.6231922848, "category": "Limited Business License", "atlas_source": "socrata_chicago", "atlas_sources": ["socrata_chicago"], "tier": 3}
{"atlas_business_id": "1353063", "name": "R & E EQUIPMENT SERVICE", "website": "https://equipment-service.eu", "domain": "equipment-service.eu", "phone": "3710212707", "city": "CHICAGO", "state": "IL", "lat": 41.7822479205, "lon": -87.737271119, "category": "Limited Business License", "atlas_source": "socrata_chicago", "atlas_sources": ["socrata_chicago"], "tier": 3}
{"atlas_business_id": "1353060", "name": "RAINBOW BRITE LAUNDRY", "website": "https://rainbowbrite.net", "domain": "rainbowbrite.net", "phone": "5890233614", "city": "CHICAGO", "state": "IL", "lat": 41.7805516742, "lon": -87.6035616797, "category": "Limited Business License", "atlas_source": "socrata_chicago", "atlas_sources": ["socrata_chicago"], "tier": 3}
