{"atlas_business_id": "1380954", "name": "TREE HOUSE HUMANE SOCIETY", "website": "https://treehouseanimals.org", "domain": "treehouseanimals.org", "phone": "2060017171", "city": "CHICAGO", "state": "IL", "lat": 42.013050453, "lon": -87.6900960727, "category": "Raffles", "atlas_source": "socrata_chicago", "atlas_sources": ["socrata_chicago"], "tier": 3}
{"atlas_business_id": "1365167", "name": "LAKEVIEW WELLNESS CENTER", "website": "https://lakeviewwellness.org", "domain": "lakeviewwellness.org", "phone": "6156034545", "city": "CHICAGO", "state": "IL", "lat": 41.9398558008, "lon": -87.6650715118, "category": "Massage Therapist", "atlas_source": "socrata_chicago", "atlas_sources": ["socrata_chicago"], "tier": 3}
{"atlas_business_id": "1354998", "name": "MAHLER ENTERPRISES, INC.", "website": "https://mahlerent.com", "domain": "mahlerent.com", "phone": null, "city": "CHICAGO", "state": "IL", "lat": 41.8989485417, "lon": -87.6239749877, "category": "Limited Business License", "atlas_source": "socrata_chicago", "atlas_sources": ["socrata_chicago"], "tier": 3}
{"atlas_business_id": "1355004", "name": "PLS CHECK CASHERS ARCHER-CALIFORNIA INC", "website": "https://pls247.com", "domain": "pls247.com", "phone": "2474489501", "city": "CHICAGO", "state": "IL", "lat": 41.8210586247, "lon": -87.6931156183, "category": "Limited Business License", "atlas_source": "socrata_chicago", "atlas_sources": ["socrata_chicago"], "tier": 3}
{"atlas_business_id": "1354994", "name": "FASTFRAME", "website": "https://fastframe.com", "domain": "fastframe.com", "phone": "2000000000", "city": "CHICAGO", "state": "IL", "lat": 41.9764750608, "lon": -87.6685625104, "category": "Limited Business License", "atlas_source": "socrata_chicago", "atlas_sources": ["socrata_chicago"], "tier": 3}
{"atlas_business_id": "1355002", "name": "MCCOY AUTO PARTS INC", "website": "https://mccoyautoparts.net", "domain": "mccoyautoparts.net", "phone": "7732770111", "city": "CHICAGO", "state": "IL", "lat": 41.8496674863, "lon": -87.7245622341, "category": "Limited Business License", "atlas_source": "socrata_chicago", "atlas_sources": ["socrata_chicago"], "tier": 3}
{"atlas_business_id": "1355003", "name": "GLOBAL GROWTH CONCEPTS", "website": "https://globalgrowth.com", "domain": "globalgrowth.com", "phone": "2015960785", "city": "CHICAGO", "state": "IL", "lat": 41.7980524898, "lon": -87.6004030366, "category": "Home Occupation", "atlas_source": "socrata_chicago", "atlas_sources": ["socrata_chicago"], "tier": 3}
{"atlas_business_id": "1354993", "name": "DUAL-TEMP OF ILLINOIS, INC.", "website": "https://dualtemp.com", "domain": "dualtemp.com", "phone": "2229545761", "city": "CHICAGO", "state": "IL", "lat": 41.8158976674, "lon": -87.6585038266, "category": "Limited Business License", "atlas_source": "socrata_chicago", "atlas_sources": ["socrata_chicago"], "tier": 3}
{"atlas_business_id": "1354966", "name": "BULGARIAN CENTER", "website": "https://bulgariancenter.org", "domain": "bulgariancenter.org", "phone": "6174538999", "city": "CHICAGO", "state": "IL", "lat": 41.9381481391, "lon": -87.8261892519, "category": "Broker", "atlas_source": "socrata_chicago", "atlas_sources": ["socrata_chicago"], "tier": 3}
{"atlas_business_id": "1354972", "name": "APACHE MOTEL", "website": "https://apachemotel.com", "domain": "apachemotel.com", "phone": "2015960785", "city": "CHICAGO", "state": "IL", "lat": 41.9822951713, "lon": -87.6934773738, "category": "Hotel", "atlas_source": "socrata_chicago", "atlas_sources": ["socrata_chicago"], "tier": 3}
{"atlas_business_id": "1353003", "name": "COMFORT SOLUTIONS, INC.", "website": "https://comfort-solutions.net", "domain": "comfort-solutions.net", "phone": "2779120117", "city": "CHICAGO", "state": "IL", "lat": 41.7966947184, "lon": -87.7977064728, "category": "Limited Business License", "atlas_source": "socrata_chicago", "atlas_sources": ["socrata_chicago"], "tier": 3}
{"atlas_business_id": "1352243", "name": "FAMILY DOLLAR STORE #7149", "website": "https://familydollar.com", "domain": "familydollar.com", "phone": "2065315769", "city": "CHICAGO", "state": "IL", "lat": 41.9614154943, "lon": -87.6896897809, "category": "Limited Business License", "atlas_source": "socrata_chicago", "atlas_sources": ["socrata_chicago"], "tier": 3}
