{"atlas_business_id": "1382516", "name": "Vape House 71 LLC", "website": "https://vapehouse.org", "domain": "vapehouse.org", "phone": "3275084495", "city": "CHICAGO", "state": "IL", "lat": 41.7663851256, "lon": -87.5725719053, "category": "Tobacco", "atlas_source": "socrata_chicago", "atlas_sources": ["socrata_chicago"], "tier": 3}
{"atlas_business_id": "1366595", "name": "MALCA AMIT CUSTOMHOUSE BROKERS, INC.", "website": "https://malca-amit.com", "domain": "malca-amit.com", "phone": "2128199636", "city": "CHICAGO", "state": "IL", "lat": 41.8819215626, "lon": -87.6260630598, "category": "Limited Business License", "atlas_source": "socrata_chicago", "atlas_sources": ["socrata_chicago"], "tier": 3}
{"atlas_business_id": "1356435", "name": "WOMEN UNDER CONSTRUCTION", "website": "https://womenunderconstruction.com", "domain": "womenunderconstruction.com", "phone": "3105620776", "city": "CHICAGO", "state": "IL", "lat": 41.9942514333, "lon": -87.6745012065, "category": "Home Occupation", "atlas_source": "socrata_chicago", "atlas_sources": ["socrata_chicago"], "tier": 3}
{"atlas_business_id": "1356430", "name": "CROWN SEWING CLEANERS & ALTERATIONS", "website": "https://crownsewing.com", "domain": "crownsewing.com", "phone": "5592034923", "city": "CHICAGO", "state": "IL", "lat": 41.9506005394, "lon": -87.6882214418, "category": "Limited Business License", "atlas_source": "socrata_chicago", "atlas_sources": ["socrata_chicago"], "tier": 3}
{"atlas_business_id": "1354465", "name": "LEON'S AUTOMOTIVE & BODY SHOP", "website": "https://leonautomotive.com", "domain": "leonautomotive.com", "phone": "2824299059", "city": "CHICAGO", "state": "IL", "lat": 41.9243089404, "lon": -87.7493441141, "category": "Motor Vehicle Repair: Engine/Body(Class III)", "atlas_source": "socrata_chicago", "atlas_sources": ["socrata_chicago"], "tier": 3}
