{"atlas_business_id": "1365920", "name": "UNIVERSAL IRON WORKS INC", "website": "https://universalironworks.com", "domain": "universalironworks.com", "phone": null, "city": "CHICAGO", "state": "IL", "lat": 41.8492767371, "lon": -87.7277884241, "category": "Home Repair", "atlas_source": "socrata_chicago", "atlas_sources": ["socrata_chicago"], "tier": 3}
{"atlas_business_id": "1365870", "name": "KLEIN PRINTING CO INC", "website": "https://kleinprinting.com", "domain": "kleinprinting.com", "phone": null, "city": "CHICAGO", "state": "IL", "lat": 41.9246392587, "lon": -87.7036589592, "category": "Limited Business License", "atlas_source": "socrata_chicago", "atlas_sources": ["socrata_chicago"], "tier": 3}
{"atlas_business_id": "1365921", "name": "LAKE SHORE NURSING CENTRE", "website": "https://lakeshore.com", "domain": "lakeshore.com", "phone": "4279382072", "city": "CHICAGO", "state": "IL", "lat": 42.0128473324, "lon": -87.6636197775, "category": "Limited Business License", "atlas_source": "socrata_chicago", "atlas_sources": ["socrata_chicago"], "tier": 3}
{"atlas_business_id": "1365891", "name": "METRO MOBILE", "website": "https://metromobile.com", "domain": "metromobile.com", "phone": "2285006208", "city": "CHICAGO", "state": "IL", "lat": 41.9110971244, "lon": -87.6870942042, "category": "Limited Business License", "atlas_source": "socrata_chicago", "atlas_sources": ["socrata_chicago"], "tier": 3}
{"atlas_business_id": "1365875", "name": "CHICAGO AUTO CENTER", "website": "https://autorepairschaumburgil.com", "domain": "autorepairschaumburgil.com", "phone": "3483598078", "city": "CHICAGO", "state": "IL", "lat": 41.876437744, "lon": -87.6554489852, "category": "Motor Vehicle Repair : Engine Only (Class II)", "atlas_source": "socrata_chicago", "atlas_sources": ["socrata_chicago"], "tier": 3}
{"atlas_business_id": "1365949", "name": "A.A. PALLET, INC.", "website": "https://pallet.com", "domain": "pallet.com", "phone": "3370145760", "city": "CHICAGO", "state": "IL", "lat": 41.8043872992, "lon": -87.6479702011, "category": "Hazardous Materials", "atlas_source": "socrata_chicago", "atlas_sources": ["socrata_chicago"], "tier": 3}
{"atlas_business_id": "1365946", "name": "PRENTISS FLORIST, INC.", "website": "https://prentissflorist.com", "domain": "prentissflorist.com", "phone": "2545352419", "city": "CHICAGO", "state": "IL", "lat": 41.9015117171, "lon": -87.7751988495, "category": "Limited Business License", "atlas_source": "socrata_chicago", "atlas_sources": ["socrata_chicago"], "tier": 3}
{"atlas_business_id": "1365881", "name": "NATIONAL PETROLEUM CO", "website": "https://nationalpetroleum.net", "domain": "nationalpetroleum.net", "phone": "2070349782", "city": "CHICAGO", "state": "IL", "lat": 41.9715164409, "lon": -87.6598856362, "category": "Limited Business License", "atlas_source": "socrata_chicago", "atlas_sources": ["socrata_chicago"], "tier": 3}
{"atlas_business_id": "1365896", "name": "J-Bees", "website": "https://bees.com", "domain": "bees.com", "phone": "6469125026", "city": "CHICAGO", "state": "IL", "lat": 41.7363800456, "lon": -87.627509219, "category": "Limited Business License", "atlas_source": "socrata_chicago", "atlas_sources": ["socrata_chicago"], "tier": 3}
{"atlas_business_id": "1365934", "name": "HOUSE 5863, INC.", "website": "https://house5863.com", "domain": "house5863.com", "phone": "3662661767", "city": "CHICAGO", "state": "IL", "lat": 41.9884712736, "lon": -87.6649492684, "category": "Bed-And-Breakfast Establishment", "atlas_source": "socrata_chicago", "atlas_sources": ["socrata_chicago"], "tier": 3}
{"atlas_business_id": "1365937", "name": "PALETERIA AZTECA #2", "website": "https://paleteriaazteca.com", "domain": "paleteriaazteca.com", "phone": "3141925352", "city": "CHICAGO", "state": "IL", "lat": 41.8516756547, "lon": -87.7036958212, "category": "Mobile Food Dispenser", "atlas_source": "socrata_chicago", "atlas_sources": ["socrata_chicago"], "tier": 3}
{"atlas_business_id": "1365838", "name": "ALAMO RENT A CAR", "website": "https://alamo.com", "domain": "alamo.com", "phone": "7302132410", "city": "CHICAGO", "state": "IL", "lat": 41.7746945416, "lon": -87.7420133008, "category": "Limited Business License", "atlas_source": "socrata_chicago", "atlas_sources": ["socrata_chicago"], "tier": 3}
{"atlas_business_id": "1363054", "name": "BARNES & NOBLE COLLEGE BOOKSTORE", "website": "https://barnesandnoble.com", "domain": "barnesandnoble.com", "phone": "2121212121", "city": "CHICAGO", "state": "IL", "lat": 41.9992390798, "lon": -87.6605192741, "category": "Limited Business License", "atlas_source": "socrata_chicago", "atlas_sources": ["socrata_chicago"], "tier": 3}
{"atlas_business_id": "1363126", "name": "ROYAL MARBLE RESTORATION", "website": "https://royalmarble.net", "domain": "royalmarble.net", "phone": "4223261150", "city": "CHICAGO", "state": "IL", "lat": 41.9723822195, "lon": -87.7221744385, "category": "Home Repair", "atlas_source": "socrata_chicago", "atlas_sources": ["socrata_chicago"], "tier": 3}
{"atlas_business_id": "1363085", "name": "LAKEVIEW WELLNESS CENTER", "website": "https://lakeviewwellness.org", "domain": "lakeviewwellness.org", "phone": "6156034545", "city": "CHICAGO", "state": "IL", "lat": 41.9398558008, "lon": -87.6650715118, "category": "Massage Therapist", "atlas_source": "socrata_chicago", "atlas_sources": ["socrata_chicago"], "tier": 3}
