{"atlas_business_id": "1382879", "name": "TRADER JOE'S #701", "website": "https://traderjoe.com", "domain": "traderjoe.com", "phone": "2021062308", "city": "CHICAGO", "state": "IL", "lat": 41.8678670902, "lon": -87.6256868412, "category": "Retail Food Establishment", "atlas_source": "socrata_chicago", "atlas_sources": ["socrata_chicago"], "tier": 3}
{"atlas_business_id": "1379072", "name": "INSIGHT STUDIOS", "website": "https://insightstudios.ca", "domain": "insightstudios.ca", "phone": "2506198828", "city": "CHICAGO", "state": "IL", "lat": 41.900463147, "lon": -87.6621886093, "category": "Body Piercing", "atlas_source": "socrata_chicago", "atlas_sources": ["socrata_chicago"], "tier": 3}
{"atlas_business_id": "1367035", "name": "KWIK KOPY PRINTING", "website": "https://kwikkopy.com", "domain": "kwikkopy.com", "phone": "2812564100", "city": "CHICAGO", "state": "IL", "lat": 41.8820811366, "lon": -87.6315134139, "category": "Limited Business License", "atlas_source": "socrata_chicago", "atlas_sources": ["socrata_chicago"], "tier": 3}
{"atlas_business_id": "1367031", "name": "Egoist Underwear", "website": "https://egoistunderwear.com", "domain": "egoistunderwear.com", "phone": "2277160301", "city": "CHICAGO", "state": "IL", "lat": 41.949338132, "lon": -87.6496963542, "category": "Limited Business License", "atlas_source": "socrata_chicago", "atlas_sources": ["socrata_chicago"], "tier": 3}
{"atlas_business_id": "1354900", "name": "GENERAL NUTRITION", "website": "https://general-nutrition.com", "domain": "general-nutrition.com", "phone": "2024021212", "city": "CHICAGO", "state": "IL", "lat": 41.8845862672, "lon": -87.6310104459, "category": "Retail Food Establishment", "atlas_source": "socrata_chicago", "atlas_sources": ["socrata_chicago"], "tier": 3}
{"atlas_business_id": "1354899", "name": "JOSE SANDOVAL", "website": "https://josesandoval.com", "domain": "josesandoval.com", "phone": null, "city": "CHICAGO", "state": "IL", "lat": 41.8551298877, "lon": -87.6686110808, "category": "Mobile Food Dispenser", "atlas_source": "socrata_chicago", "atlas_sources": ["socrata_chicago"], "tier": 3}
