{"atlas_business_id": "1378094", "name": "Sarah McGuire Studio", "website": "https://sarahmcguire.com", "domain": "sarahmcguire.com", "phone": "3141925352", "city": "CHICAGO", "state": "IL", "lat": 41.9496370284, "lon": -87.6735547805, "category": "Limited Business License", "atlas_source": "socrata_chicago", "atlas_sources": ["socrata_chicago"], "tier": 3}
{"atlas_business_id": "1366143", "name": "FOURSIDED", "website": "https://foursided.com", "domain": "foursided.com", "phone": "2064960910", "city": "CHICAGO", "state": "IL", "lat": 41.936329381, "lon": -87.6479167905, "category": "Limited Business License", "atlas_source": "socrata_chicago", "atlas_sources": ["socrata_chicago"], "tier": 3}
{"atlas_business_id": "1354835", "name": "SOUTH SIDE IRISH IMPORTS", "website": "https://southsideirishimports.com", "domain": "southsideirishimports.com", "phone": "2000206934", "city": "CHICAGO", "state": "IL", "lat": 41.6915684259, "lon": -87.7075963013, "category": "Limited Business License", "atlas_source": "socrata_chicago", "atlas_sources": ["socrata_chicago"], "tier": 3}
{"atlas_business_id": "1354011", "name": "G & W WINDOW TREATMENTS", "website": "https://theshadestore.com", "domain": "theshadestore.com", "phone": "3957790715", "city": "CHICAGO", "state": "IL", "lat": 41.884988941, "lon": -87.6566352166, "category": "Limited Business License", "atlas_source": "socrata_chicago", "atlas_sources": ["socrata_chicago"], "tier": 3}
{"atlas_business_id": "1354022", "name": "DRY CLEANING", "website": "https://wordpress.com", "domain": "wordpress.com", "phone": "2496433114", "city": "CHICAGO", "state": "IL", "lat": 41.9387758414, "lon": -87.7690866707, "category": "Limited Business License", "atlas_source": "socrata_chicago", "atlas_sources": ["socrata_chicago"], "tier": 3}
