{"atlas_business_id": "1382805", "name": "The Warehouse Bar & Pizzeria", "website": "https://thewarehouse.org", "domain": "thewarehouse.org", "phone": "3241954987", "city": "CHICAGO", "state": "IL", "lat": 41.9250960837, "lon": -87.6641638513, "category": "Consumption on Premises - Incidental Activity", "atlas_source": "socrata_chicago", "atlas_sources": ["socrata_chicago"], "tier": 3}
{"atlas_business_id": "1378926", "name": "CHICAGO VINTAGE MOTOR CARRIAGE", "website": "https://chicagovintage.com", "domain": "chicagovintage.com", "phone": "3126971103", "city": "CHICAGO", "state": "IL", "lat": 41.8734506529, "lon": -87.6440073461, "category": "Limited Business License", "atlas_source": "socrata_chicago", "atlas_sources": ["socrata_chicago"], "tier": 3}
{"atlas_business_id": "1366884", "name": "PROJECT LEADERSHIP ASSOCIATES, INC.", "website": "https://projectleadership.org", "domain": "projectleadership.org", "phone": "2015960785", "city": "CHICAGO", "state": "IL", "lat": 41.8781381812, "lon": -87.6370649952, "category": "Limited Business License", "atlas_source": "socrata_chicago", "atlas_sources": ["socrata_chicago"], "tier": 3}
{"atlas_business_id": "1366885", "name": "RHR INTERNATIONAL LLP", "website": "https://rhrinternational.com", "domain": "rhrinternational.com", "phone": "7004123633", "city": "CHICAGO", "state": "IL", "lat": 41.8824109065, "lon": -87.6371747105, "category": "Limited Business License", "atlas_source": "socrata_chicago", "atlas_sources": ["socrata_chicago"], "tier": 3}
{"atlas_business_id": "1354753", "name": "US MEDICAL SUPPLIES INC.", "website": "https://usmedicalsupplies.com", "domain": "usmedicalsupplies.com", "phone": "4937164507", "city": "CHICAGO", "state": "IL", "lat": 41.9909656427, "lon": -87.6992697551, "category": "Limited Business License", "atlas_source": "socrata_chicago", "atlas_sources": ["socrata_chicago"], "tier": 3}
