{"atlas_business_id": "1347344", "name": "MIGUEL NUNEZ", "website": "https://miguel-nunez.com", "domain": "miguel-nunez.com", "phone": "2204181546", "city": "CHICAGO", "state": "IL", "lat": 41.8508439597, "lon": -87.6978768438, "category": "Peddler, food (fruits and vegtables only)", "atlas_source": "socrata_chicago", "atlas_sources": ["socrata_chicago"], "tier": 3}
{"atlas_business_id": "1347176", "name": "HATS PLUS LTD", "website": "https://hats-plus.com", "domain": "hats-plus.com", "phone": null, "city": "CHICAGO", "state": "IL", "lat": 41.9535522484, "lon": -87.7458707042, "category": "Limited Business License", "atlas_source": "socrata_chicago", "atlas_sources": ["socrata_chicago"], "tier": 3}
{"atlas_business_id": "1346919", "name": "WINDY CITY SWEETS", "website": "https://windycitysweets.com", "domain": "windycitysweets.com", "phone": "2056045976", "city": "CHICAGO", "state": "IL", "lat": 41.9422081972, "lon": -87.6446137331, "category": "Limited Business License", "atlas_source": "socrata_chicago", "atlas_sources": ["socrata_chicago"], "tier": 3}
{"atlas_business_id": "1347073", "name": "THE BODY SHOP", "website": "https://thebodyshop.com", "domain": "thebodyshop.com", "phone": "2008440026", "city": "CHICAGO", "state": "IL", "lat": 41.8916885174, "lon": -87.6243071781, "category": "Limited Business License", "atlas_source": "socrata_chicago", "atlas_sources": ["socrata_chicago"], "tier": 3}
{"atlas_business_id": "1347157", "name": "DIRTY WORK MAID & CLEANING SERV", "website": "https://dirtywork.net", "domain": "dirtywork.net", "phone": "3933181024", "city": "CHICAGO", "state": "IL", "lat": 41.7236780614, "lon": -87.6807709543, "category": "Home Occupation", "atlas_source": "socrata_chicago", "atlas_sources": ["socrata_chicago"], "tier": 3}
{"atlas_business_id": "1347152", "name": "MMD SERVICES, INC", "website": "https://mmd-services.com", "domain": "mmd-services.com", "phone": "2025033033", "city": "CHICAGO", "state": "IL", "lat": 41.87928364, "lon": -87.6371007044, "category": "Limited Business License", "atlas_source": "socrata_chicago", "atlas_sources": ["socrata_chicago"], "tier": 3}
{"atlas_business_id": "1347318", "name": "KATSAROS PHARMACY", "website": "https://katsarospharmacy.com", "domain": "katsarospharmacy.com", "phone": "7732888700", "city": "CHICAGO", "state": "IL", "lat": 41.7994408612, "lon": -87.5882610942, "category": "Limited Business License", "atlas_source": "socrata_chicago", "atlas_sources": ["socrata_chicago"], "tier": 3}
{"atlas_business_id": "1347310", "name": "SOLSTICE", "website": "https://solstice.com", "domain": "solstice.com", "phone": "2860628581", "city": "CHICAGO", "state": "IL", "lat": 41.899248597, "lon": -87.6242749782, "category": "Limited Business License", "atlas_source": "socrata_chicago", "atlas_sources": ["socrata_chicago"], "tier": 3}
{"atlas_business_id": "1347270", "name": "5T Management Inc", "website": "https://5t-management.com", "domain": "5t-management.com", "phone": "3333333333", "city": "CHICAGO", "state": "IL", "lat": 41.7584205221, "lon": -87.6083997365, "category": "Limited Business License", "atlas_source": "socrata_chicago", "atlas_sources": ["socrata_chicago"], "tier": 3}
{"atlas_business_id": "1347179", "name": "TERMINAL AUTO REPAIR INC", "website": "https://terminalauto.ca", "domain": "terminalauto.ca", "phone": "2147483003", "city": "CHICAGO", "state": "IL", "lat": 41.8077026597, "lon": -87.743850738, "category": "Hazardous Materials", "atlas_source": "socrata_chicago", "atlas_sources": ["socrata_chicago"], "tier": 3}
{"atlas_business_id": "1347284", "name": "PITCHFORK MUSIC FESTIVAL", "website": "https://pitchforkmusicfestival.com", "domain": "pitchforkmusicfestival.com", "phone": null, "city": "CHICAGO", "state": "IL", "lat": 41.8847112797, "lon": -87.6642818261, "category": "Itinerant Merchant, Class I", "atlas_source": "socrata_chicago", "atlas_sources": ["socrata_chicago"], "tier": 3}
{"atlas_business_id": "1347283", "name": "HOME CARE SOLUTIONS", "website": "https://homecare.com", "domain": "homecare.com", "phone": "2190931590", "city": "CHICAGO", "state": "IL", "lat": 41.7924075353, "lon": -87.7841070144, "category": "Limited Business License", "atlas_source": "socrata_chicago", "atlas_sources": ["socrata_chicago"], "tier": 3}
