{"atlas_business_id": "1382413", "name": "DAVID A. NICE BUILDERS, INC.", "website": "https://davidnicebuilders.com", "domain": "davidnicebuilders.com", "phone": "2465961508", "city": "WILLIAMSBURG", "state": "VA", "lat": null, "lon": null, "category": "Limited Business License", "atlas_source": "socrata_chicago", "atlas_sources": ["socrata_chicago"], "tier": 3}
{"atlas_business_id": "1366492", "name": "MLB WORLDWIDE LOGISTICS", "website": "https://mlbworldwide.com", "domain": "mlbworldwide.com", "phone": "7194477900", "city": "CHICAGO", "state": "IL", "lat": 41.9734181856, "lon": -87.8623726394, "category": "Limited Business License", "atlas_source": "socrata_chicago", "atlas_sources": ["socrata_chicago"], "tier": 3}
{"atlas_business_id": "1366491", "name": "DAILY FOOD MART", "website": "https://dailyfood.net", "domain": "dailyfood.net", "phone": "2453169859", "city": "CHICAGO", "state": "IL", "lat": 41.9048103582, "lon": -87.7656035599, "category": "Tobacco", "atlas_source": "socrata_chicago", "atlas_sources": ["socrata_chicago"], "tier": 3}
{"atlas_business_id": "1356331", "name": "QUALITY PLUMBING & HEATING SUPPLY INC.", "website": "https://qualityplumbing.com", "domain": "qualityplumbing.com", "phone": "2552037161", "city": "CHICAGO", "state": "IL", "lat": 41.8094277516, "lon": -87.7116112374, "category": "Limited Business License", "atlas_source": "socrata_chicago", "atlas_sources": ["socrata_chicago"], "tier": 3}
{"atlas_business_id": "1354362", "name": "MIKES BARBER SHOP", "website": "https://mikesbarbershop.com", "domain": "mikesbarbershop.com", "phone": "3710212707", "city": "CHICAGO", "state": "IL", "lat": 41.9536262826, "lon": -87.7193920282, "category": "Limited Business License", "atlas_source": "socrata_chicago", "atlas_sources": ["socrata_chicago"], "tier": 3}
{"atlas_business_id": "1354339", "name": "PET PARADISE GROOMING SALON", "website": "https://petparadise.com", "domain": "petparadise.com", "phone": "2023080808", "city": "CHICAGO", "state": "IL", "lat": 41.7785726759, "lon": -87.7211117194, "category": "Animal Care Facility", "atlas_source": "socrata_chicago", "atlas_sources": ["socrata_chicago"], "tier": 3}
