{"atlas_business_id": "1376089", "name": "Blue Door Kitchen & Garden", "website": "https://bluedoor.com", "domain": "bluedoor.com", "phone": "2168398883", "city": "CHICAGO", "state": "IL", "lat": 41.9032560452, "lon": -87.6305029866, "category": "Outdoor Patio", "atlas_source": "socrata_chicago", "atlas_sources": ["socrata_chicago"], "tier": 3}
{"atlas_business_id": "1366998", "name": "GREEN", "website": "https://green.com", "domain": "green.com", "phone": null, "city": "CHICAGO", "state": "IL", "lat": 41.9134652399, "lon": -87.6349300529, "category": "Limited Business License", "atlas_source": "socrata_chicago", "atlas_sources": ["socrata_chicago"], "tier": 3}
{"atlas_business_id": "1366999", "name": "CROWN CONSTRUCTION ASSOCIATES, INC.", "website": "https://crownconstruction.net", "domain": "crownconstruction.net", "phone": "2004852617", "city": "CHICAGO", "state": "IL", "lat": 41.8959275438, "lon": -87.6325498323, "category": "Limited Business License", "atlas_source": "socrata_chicago", "atlas_sources": ["socrata_chicago"], "tier": 3}
{"atlas_business_id": "1366845", "name": "AUTOMATIC SPRING COILING CO", "website": "https://automaticspring.com", "domain": "automaticspring.com", "phone": "6168427800", "city": "CHICAGO", "state": "IL", "lat": 41.9882804176, "lon": -87.7296572922, "category": "Hazardous Materials", "atlas_source": "socrata_chicago", "atlas_sources": ["socrata_chicago"], "tier": 3}
{"atlas_business_id": "1363716", "name": "GREAT PARAGON HEALTH CARE INC.", "website": "https://greatparagonhealthcare.com", "domain": "greatparagonhealthcare.com", "phone": "7524685001", "city": "CHICAGO", "state": "IL", "lat": 41.9980565789, "lon": -87.6626517868, "category": "Limited Business License", "atlas_source": "socrata_chicago", "atlas_sources": ["socrata_chicago"], "tier": 3}
{"atlas_business_id": "1354019", "name": "CHICAGO METAL SUPPLY, INC.", "website": "https://chicagometalsupply.com", "domain": "chicagometalsupply.com", "phone": "3710212707", "city": "CHICAGO", "state": "IL", "lat": 41.9158842358, "lon": -87.7506616937, "category": "Limited Business License", "atlas_source": "socrata_chicago", "atlas_sources": ["socrata_chicago"], "tier": 3}
{"atlas_business_id": "1354017", "name": "B & G HOME REPAIR MAINTANENCE", "website": "https://homerepair.net", "domain": "homerepair.net", "phone": "5551234567", "city": "CHICAGO", "state": "IL", "lat": 41.7420153253, "lon": -87.6439379476, "category": "Limited Business License", "atlas_source": "socrata_chicago", "atlas_sources": ["socrata_chicago"], "tier": 3}
{"atlas_business_id": "1354023", "name": "ORKIN PEST CONTROL", "website": "https://orkin.com", "domain": "orkin.com", "phone": "2147483647", "city": "CHICAGO", "state": "IL", "lat": 41.7865429421, "lon": -87.6920439619, "category": "Limited Business License", "atlas_source": "socrata_chicago", "atlas_sources": ["socrata_chicago"], "tier": 3}
{"atlas_business_id": "1354027", "name": "IRVING PARK RD SRO", "website": "https://irvingpark.org", "domain": "irvingpark.org", "phone": "4814571895", "city": "CHICAGO", "state": "IL", "lat": 41.9532883831, "lon": -87.7491575022, "category": "Single Room Occupancy Class II", "atlas_source": "socrata_chicago", "atlas_sources": ["socrata_chicago"], "tier": 3}
