{"atlas_business_id": "1377276", "name": "SERVICE PRO TITANS", "website": "https://serviceprotitans.com", "domain": "serviceprotitans.com", "phone": "2147482999", "city": "CHICAGO", "state": "IL", "lat": 41.824595561, "lon": -87.6486488903, "category": "Regulated Business License", "atlas_source": "socrata_chicago", "atlas_sources": ["socrata_chicago"], "tier": 3}
{"atlas_business_id": "1368040", "name": "BECAUSE OF YOU HAIR ENHANCEMENT", "website": "https://becauseof.net", "domain": "becauseof.net", "phone": "2496433114", "city": "CHICAGO", "state": "IL", "lat": 41.8846463654, "lon": -87.6172484962, "category": "Limited Business License", "atlas_source": "socrata_chicago", "atlas_sources": ["socrata_chicago"], "tier": 3}
{"atlas_business_id": "1367190", "name": "LEE ROSKI LTD", "website": "https://leeroski.com", "domain": "leeroski.com", "phone": "2242418105", "city": "CHICAGO", "state": "IL", "lat": 41.8887410381, "lon": -87.6370805406, "category": "Limited Business License", "atlas_source": "socrata_chicago", "atlas_sources": ["socrata_chicago"], "tier": 3}
{"atlas_business_id": "1365235", "name": "YELLOW CAB AFFILIATION", "website": "https://californiayellowcab.com", "domain": "californiayellowcab.com", "phone": "4431811719", "city": "CHICAGO", "state": "IL", "lat": 41.9903606152, "lon": -87.6945932122, "category": "Limited Business License", "atlas_source": "socrata_chicago", "atlas_sources": ["socrata_chicago"], "tier": 3}
{"atlas_business_id": "1355073", "name": "L & L PROVISIONS", "website": "https://provisions.org", "domain": "provisions.org", "phone": "4504452812", "city": "CHICAGO", "state": "IL", "lat": 41.8197947296, "lon": -87.6396244009, "category": "Limited Business License", "atlas_source": "socrata_chicago", "atlas_sources": ["socrata_chicago"], "tier": 3}
{"atlas_business_id": "1355068", "name": "DANCE CONNECTION", "website": "https://dance-connection.com", "domain": "dance-connection.com", "phone": "2192388920", "city": "CHICAGO", "state": "IL", "lat": 41.9381570881, "lon": -87.6860377499, "category": "Limited Business License", "atlas_source": "socrata_chicago", "atlas_sources": ["socrata_chicago"], "tier": 3}
{"atlas_business_id": "1355076", "name": "ACCESS SEARCH INC", "website": "https://access-search.com", "domain": "access-search.com", "phone": "2396590414", "city": "CHICAGO", "state": "IL", "lat": 41.8863553943, "lon": -87.6429395237, "category": "Limited Business License", "atlas_source": "socrata_chicago", "atlas_sources": ["socrata_chicago"], "tier": 3}
{"atlas_business_id": "1355069", "name": "THE SHOP TATTOO STUDIO", "website": "https://theshop.com", "domain": "theshop.com", "phone": "2031358067", "city": "CHICAGO", "state": "IL", "lat": 41.8347454016, "lon": -87.6703146772, "category": "Limited Business License", "atlas_source": "socrata_chicago", "atlas_sources": ["socrata_chicago"], "tier": 3}
{"atlas_business_id": "1355066", "name": "ALBERT J WAGNER & SON, INC", "website": "https://albertwagner.info", "domain": "albertwagner.info", "phone": "2026060806", "city": "CHICAGO", "state": "IL", "lat": 41.9505615227, "lon": -87.6593981907, "category": "Manufacturing Establishments", "atlas_source": "socrata_chicago", "atlas_sources": ["socrata_chicago"], "tier": 3}
{"atlas_business_id": "1354963", "name": "ROSA GUTIERREZ", "website": "https://rosagutierrez.com", "domain": "rosagutierrez.com", "phone": "2026032017", "city": "CHICAGO", "state": "IL", "lat": 41.8338282621, "lon": -87.679199089, "category": "Peddler, food (fruits and vegtables only)", "atlas_source": "socrata_chicago", "atlas_sources": ["socrata_chicago"], "tier": 3}
{"atlas_business_id": "1353106", "name": "SUNSHINE LAUNDRY", "website": "https://sunshine-laundry.com", "domain": "sunshine-laundry.com", "phone": "2080666600", "city": "CHICAGO", "state": "IL", "lat": 41.6855003809, "lon": -87.6163249856, "category": "Limited Business License", "atlas_source": "socrata_chicago", "atlas_sources": ["socrata_chicago"], "tier": 3}
