{"atlas_business_id": "1367371", "name": "NATIONAL AIR DUCT", "website": "https://nationalair.net", "domain": "nationalair.net", "phone": "2047667016", "city": "CHICAGO", "state": "IL", "lat": 41.8896015165, "lon": -87.6865114443, "category": "Limited Business License", "atlas_source": "socrata_chicago", "atlas_sources": ["socrata_chicago"], "tier": 3}
{"atlas_business_id": "1367367", "name": "EASTER SEALS METROPOLITAN CHICAGO, INC.", "website": "https://easterseals.org", "domain": "easterseals.org", "phone": "2892081040", "city": "CHICAGO", "state": "IL", "lat": 41.8648448731, "lon": -87.6752189405, "category": "Limited Business License", "atlas_source": "socrata_chicago", "atlas_sources": ["socrata_chicago"], "tier": 3}
{"atlas_business_id": "1367372", "name": "ONWARD TECHNOLOGIES INC", "website": "https://onwardtechnologies.net", "domain": "onwardtechnologies.net", "phone": "4312070355", "city": "CHICAGO", "state": "IL", "lat": 41.8863516045, "lon": -87.6326139455, "category": "Limited Business License", "atlas_source": "socrata_chicago", "atlas_sources": ["socrata_chicago"], "tier": 3}
{"atlas_business_id": "1354398", "name": "AA CRONOS COMPANY", "website": "https://aacronos.com", "domain": "aacronos.com", "phone": "7739689613", "city": "CHICAGO", "state": "IL", "lat": 41.9549360936, "lon": -87.7117577593, "category": "Home Repair", "atlas_source": "socrata_chicago", "atlas_sources": ["socrata_chicago"], "tier": 3}
{"atlas_business_id": "1354401", "name": "MB AGENCY", "website": "https://mb-agency.com", "domain": "mb-agency.com", "phone": "2000598907", "city": "CHICAGO", "state": "IL", "lat": 41.92589841, "lon": -87.7659109477, "category": "Limited Business License", "atlas_source": "socrata_chicago", "atlas_sources": ["socrata_chicago"], "tier": 3}
