{"atlas_business_id": "1359681", "name": "TESLA TRAVEL", "website": "https://tesla-travel.com", "domain": "tesla-travel.com", "phone": null, "city": "CHICAGO", "state": "IL", "lat": 41.9539560075, "lon": -87.7136443266, "category": "Broker", "atlas_source": "socrata_chicago", "atlas_sources": ["socrata_chicago"], "tier": 3}
{"atlas_business_id": "1359552", "name": "hhgregg", "website": "https://hhgregg.com", "domain": "hhgregg.com", "phone": "2022506739", "city": "CHICAGO", "state": "IL", "lat": 41.7546601244, "lon": -87.7413847586, "category": "Limited Business License", "atlas_source": "socrata_chicago", "atlas_sources": ["socrata_chicago"], "tier": 3}
{"atlas_business_id": "1359358", "name": "COLOR YOUR LIFE", "website": "https://color-your-life.com", "domain": "color-your-life.com", "phone": null, "city": "CHICAGO", "state": "IL", "lat": 41.8194414263, "lon": -87.6653755449, "category": "Limited Business License", "atlas_source": "socrata_chicago", "atlas_sources": ["socrata_chicago"], "tier": 3}
{"atlas_business_id": "1359496", "name": "ECONOMY AUTO SALES", "website": "https://economyautosales.net", "domain": "economyautosales.net", "phone": "2405640051", "city": "CHICAGO", "state": "IL", "lat": 41.8442872882, "lon": -87.7299453696, "category": "Limited Business License", "atlas_source": "socrata_chicago", "atlas_sources": ["socrata_chicago"], "tier": 3}
{"atlas_business_id": "1359721", "name": "AMERICASH LOANS LLC", "website": "https://americashloans.net", "domain": "americashloans.net", "phone": "3636363636", "city": "CHICAGO", "state": "IL", "lat": 41.8968182077, "lon": -87.6260211679, "category": "Limited Business License", "atlas_source": "socrata_chicago", "atlas_sources": ["socrata_chicago"], "tier": 3}
{"atlas_business_id": "1359703", "name": "DREAM INC", "website": "https://dream.org", "domain": "dream.org", "phone": "5714285714", "city": "CHICAGO", "state": "IL", "lat": 41.8808149896, "lon": -87.7273912563, "category": "Limited Business License", "atlas_source": "socrata_chicago", "atlas_sources": ["socrata_chicago"], "tier": 3}
{"atlas_business_id": "1359626", "name": "CREATIVE CLAYTHINGS INC", "website": "https://creativeclaythings.com", "domain": "creativeclaythings.com", "phone": "3124218000", "city": "CHICAGO", "state": "IL", "lat": 41.943814028, "lon": -87.6640751865, "category": "Limited Business License", "atlas_source": "socrata_chicago", "atlas_sources": ["socrata_chicago"], "tier": 3}
{"atlas_business_id": "1359831", "name": "HOME CARE AGENCY", "website": "https://homehealthandhospice.net", "domain": "homehealthandhospice.net", "phone": "7146002024", "city": "CHICAGO", "state": "IL", "lat": 41.9950937542, "lon": -87.7290420718, "category": "Limited Business License", "atlas_source": "socrata_chicago", "atlas_sources": ["socrata_chicago"], "tier": 3}
{"atlas_business_id": "1359816", "name": "SANDERS LANDSCAPING INC", "website": "https://sanderslandscaping.org", "domain": "sanderslandscaping.org", "phone": "2055878805", "city": "CHICAGO", "state": "IL", "lat": 41.743306677, "lon": -87.5744033799, "category": "Limited Business License", "atlas_source": "socrata_chicago", "atlas_sources": ["socrata_chicago"], "tier": 3}
{"atlas_business_id": "1359308", "name": "CHICAGO CHRISTIAN INDUSTRIAL LEAGUE", "website": "https://chicagochristian.org", "domain": "chicagochristian.org", "phone": "3374860176", "city": "CHICAGO", "state": "IL", "lat": 41.866625124, "lon": -87.6955148096, "category": "Limited Business License", "atlas_source": "socrata_chicago", "atlas_sources": ["socrata_chicago"], "tier": 3}
{"atlas_business_id": "1359297", "name": "VP FINISH", "website": "https://vpfinish.com", "domain": "vpfinish.com", "phone": "3675151654", "city": "CHICAGO", "state": "IL", "lat": 41.9141900012, "lon": -87.758431331, "category": "Hazardous Materials", "atlas_source": "socrata_chicago", "atlas_sources": ["socrata_chicago"], "tier": 3}
{"atlas_business_id": "1359290", "name": "THE FIELD HOUSE", "website": "https://thefield.com", "domain": "thefield.com", "phone": "6192329840", "city": "CHICAGO", "state": "IL", "lat": 41.9270437932, "lon": -87.6411952543, "category": "Limited Business License", "atlas_source": "socrata_chicago", "atlas_sources": ["socrata_chicago"], "tier": 3}
{"atlas_business_id": "1359125", "name": "GRAND EXPRESS AUTO SERVICE INC", "website": "https://grand-express.eu", "domain": "grand-express.eu", "phone": "4445535400", "city": "CHICAGO", "state": "IL", "lat": 41.9177652496, "lon": -87.7598075621, "category": "Motor Vehicle Repair: Engine/Body(Class III)", "atlas_source": "socrata_chicago", "atlas_sources": ["socrata_chicago"], "tier": 3}
{"atlas_business_id": "1359305", "name": "NASH BROTHERS CONSTRUCTION CO", "website": "https://nashbrothers.com", "domain": "nashbrothers.com", "phone": "3531309181", "city": "CHICAGO", "state": "IL", "lat": 41.8556659947, "lon": -87.7372297294, "category": "Limited Business License", "atlas_source": "socrata_chicago", "atlas_sources": ["socrata_chicago"], "tier": 3}
{"atlas_business_id": "1359120", "name": "A. C. BROWN CONSTRUCTION CO., INC.", "website": "https://brown-construction.com", "domain": "brown-construction.com", "phone": "9163739300", "city": "CHICAGO", "state": "IL", "lat": 41.7368388156, "lon": -87.6460267814, "category": "Home Repair", "atlas_source": "socrata_chicago", "atlas_sources": ["socrata_chicago"], "tier": 3}
{"atlas_business_id": "1359292", "name": "ADD-ON-GLASS", "website": "https://addon.com", "domain": "addon.com", "phone": "2142857142", "city": "CHICAGO", "state": "IL", "lat": 41.9407144991, "lon": -87.7004630416, "category": "Home Repair", "atlas_source": "socrata_chicago", "atlas_sources": ["socrata_chicago"], "tier": 3}
{"atlas_business_id": "1359114", "name": "SMITHS BARBER SHOP", "website": "https://arisstudio.cz", "domain": "arisstudio.cz", "phone": "3106992890", "city": "CHICAGO", "state": "IL", "lat": 41.7512156888, "lon": -87.6016898299, "category": "Limited Business License", "atlas_source": "socrata_chicago", "atlas_sources": ["socrata_chicago"], "tier": 3}
{"atlas_business_id": "1359109", "name": "JOSE ALVAREZ", "website": "https://jose-alvarez.com", "domain": "jose-alvarez.com", "phone": "2201491920", "city": "CHICAGO", "state": "IL", "lat": 41.7977457567, "lon": -87.695279924, "category": "Peddler, non-food", "atlas_source": "socrata_chicago", "atlas_sources": ["socrata_chicago"], "tier": 3}
{"atlas_business_id": "1359116", "name": "STANLEY SPRING & STAMPING", "website": "https://stanleyspring.com", "domain": "stanleyspring.com", "phone": "7737772600", "city": "CHICAGO", "state": "IL", "lat": 41.9753603132, "lon": -87.7549148564, "category": "Hazardous Materials", "atlas_source": "socrata_chicago", "atlas_sources": ["socrata_chicago"], "tier": 3}
{"atlas_business_id": "1359313", "name": "MODERN DAY RENOVATORS & DEVELO", "website": "https://modernday.org", "domain": "modernday.org", "phone": "2175582300", "city": "CHICAGO", "state": "IL", "lat": 41.8214631167, "lon": -87.6216888872, "category": "Home Occupation", "atlas_source": "socrata_chicago", "atlas_sources": ["socrata_chicago"], "tier": 3}
{"atlas_business_id": "1359287", "name": "J & J SPEAKER REPAIR", "website": "https://speaker-repair.com", "domain": "speaker-repair.com", "phone": "2135922330", "city": "CHICAGO", "state": "IL", "lat": 41.93092528, "lon": -87.8013096899, "category": "Electronic Equipment Repair", "atlas_source": "socrata_chicago", "atlas_sources": ["socrata_chicago"], "tier": 3}
{"atlas_business_id": "1359288", "name": "MAHOGANY GRAPHICS", "website": "https://mahogany-graphics.com", "domain": "mahogany-graphics.com", "phone": "2058823529", "city": "CHICAGO", "state": "IL", "lat": 41.880121709, "lon": -87.7658401588, "category": "Limited Business License", "atlas_source": "socrata_chicago", "atlas_sources": ["socrata_chicago"], "tier": 3}
{"atlas_business_id": "1359123", "name": "LAKESHORE PLUMBING, INC.", "website": "https://lakeshoreplumbing.com", "domain": "lakeshoreplumbing.com", "phone": "7737257455", "city": "CHICAGO", "state": "IL", "lat": 41.9710681482, "lon": -87.6902777233, "category": "Home Repair", "atlas_source": "socrata_chicago", "atlas_sources": ["socrata_chicago"], "tier": 3}
{"atlas_business_id": "1359314", "name": "Midwest Academy", "website": "https://midwestacademy.com", "domain": "midwestacademy.com", "phone": "2023050101", "city": "CHICAGO", "state": "IL", "lat": 41.8806705914, "lon": -87.6267378509, "category": "Limited Business License", "atlas_source": "socrata_chicago", "atlas_sources": ["socrata_chicago"], "tier": 3}
{"atlas_business_id": "1359306", "name": "BRADLEY TERRACE", "website": "https://bradleyterrace.com", "domain": "bradleyterrace.com", "phone": "3143280111", "city": "CHICAGO", "state": "IL", "lat": 41.9877859066, "lon": -87.8102422405, "category": "Home Occupation", "atlas_source": "socrata_chicago", "atlas_sources": ["socrata_chicago"], "tier": 3}
{"atlas_business_id": "1359220", "name": "T-MOBILE", "website": "https://mobile.net", "domain": "mobile.net", "phone": null, "city": "CHICAGO", "state": "IL", "lat": 41.7683502192, "lon": -87.6637390239, "category": "Limited Business License", "atlas_source": "socrata_chicago", "atlas_sources": ["socrata_chicago"], "tier": 3}
{"atlas_business_id": "1359215", "name": "INTERSTATE MECHANICAL & CONSTRUCTION", "website": "https://interstatemechanical.com", "domain": "interstatemechanical.com", "phone": "4653966513", "city": "CHICAGO", "state": "IL", "lat": 41.855302018, "lon": -87.6400331902, "category": "Limited Business License", "atlas_source": "socrata_chicago", "atlas_sources": ["socrata_chicago"], "tier": 3}
{"atlas_business_id": "1359075", "name": "ALL TEMP CHICAGOLAND HEATING", "website": "https://alltemp.com", "domain": "alltemp.com", "phone": "7496969728", "city": "CHICAGO", "state": "IL", "lat": 41.9607221491, "lon": -87.7381147111, "category": "Home Repair", "atlas_source": "socrata_chicago", "atlas_sources": ["socrata_chicago"], "tier": 3}
{"atlas_business_id": "1358945", "name": "ILEO", "website": "https://ileo.com", "domain": "ileo.com", "phone": "2001920458", "city": "CHICAGO", "state": "IL", "lat": 41.8880742811, "lon": -87.6349552029, "category": "Limited Business License", "atlas_source": "socrata_chicago", "atlas_sources": ["socrata_chicago"], "tier": 3}
{"atlas_business_id": "1359106", "name": "GOLD COAST TICKETS", "website": "https://gold-coast-tickets.com", "domain": "gold-coast-tickets.com", "phone": "2223999999", "city": "CHICAGO", "state": "IL", "lat": 41.8818391697, "lon": -87.6501110512, "category": "Limited Business License", "atlas_source": "socrata_chicago", "atlas_sources": ["socrata_chicago"], "tier": 3}
{"atlas_business_id": "1358942", "name": "GROOM THEORY UNISEX HAIR CENTER", "website": "https://groomtheory.com", "domain": "groomtheory.com", "phone": "2876458080", "city": "CHICAGO", "state": "IL", "lat": 41.7513361535, "lon": -87.5897913498, "category": "Limited Business License", "atlas_source": "socrata_chicago", "atlas_sources": ["socrata_chicago"], "tier": 3}
{"atlas_business_id": "1358985", "name": "CALI NAILS", "website": "https://expireddomains.com", "domain": "expireddomains.com", "phone": "2832104850", "city": "CHICAGO", "state": "IL", "lat": 41.79799187, "lon": -87.7234437408, "category": "Limited Business License", "atlas_source": "socrata_chicago", "atlas_sources": ["socrata_chicago"], "tier": 3}
{"atlas_business_id": "1358979", "name": "PARKHILL DEVELOPMENT CORP.", "website": "https://parkhilldevelopment.com", "domain": "parkhilldevelopment.com", "phone": null, "city": "CHICAGO", "state": "IL", "lat": 41.9181218083, "lon": -87.6583693249, "category": "Residential Real Estate Developer", "atlas_source": "socrata_chicago", "atlas_sources": ["socrata_chicago"], "tier": 3}
{"atlas_business_id": "1358973", "name": "JOSE A SOTO", "website": "https://josesoto.com", "domain": "josesoto.com", "phone": null, "city": "CHICAGO", "state": "IL", "lat": 41.7754898368, "lon": -87.7383896518, "category": "Home Repair", "atlas_source": "socrata_chicago", "atlas_sources": ["socrata_chicago"], "tier": 3}
{"atlas_business_id": "1358856", "name": "M.L CLEANING", "website": "https://cleaning.com", "domain": "cleaning.com", "phone": "2809965400", "city": "CHICAGO", "state": "IL", "lat": 41.9573364108, "lon": -87.7180679739, "category": "Home Occupation", "atlas_source": "socrata_chicago", "atlas_sources": ["socrata_chicago"], "tier": 3}
{"atlas_business_id": "1359326", "name": "PRECISION PLATING CO INC", "website": "https://com.mx", "domain": "com.mx", "phone": null, "city": "CHICAGO", "state": "IL", "lat": 41.9899793453, "lon": -87.7322112242, "category": "Limited Business License", "atlas_source": "socrata_chicago", "atlas_sources": ["socrata_chicago"], "tier": 3}
{"atlas_business_id": "1359107", "name": "WAGNER FOUNDRY INC", "website": "https://wagnerfoundry.com", "domain": "wagnerfoundry.com", "phone": "2433136906", "city": "CHICAGO", "state": "IL", "lat": 41.9157782372, "lon": -87.6660782909, "category": "Manufacturing Establishments", "atlas_source": "socrata_chicago", "atlas_sources": ["socrata_chicago"], "tier": 3}
{"atlas_business_id": "1358949", "name": "INTRIGUE", "website": "https://intrigue.net", "domain": "intrigue.net", "phone": null, "city": "CHICAGO", "state": "IL", "lat": 41.7546601244, "lon": -87.7413847586, "category": "Limited Business License", "atlas_source": "socrata_chicago", "atlas_sources": ["socrata_chicago"], "tier": 3}
{"atlas_business_id": "1358955", "name": "RT MATERIALS", "website": "https://rtmaterials.com", "domain": "rtmaterials.com", "phone": "2015960785", "city": "CHICAGO", "state": "IL", "lat": 41.9368351217, "lon": -87.6874980173, "category": "Limited Business License", "atlas_source": "socrata_chicago", "atlas_sources": ["socrata_chicago"], "tier": 3}
{"atlas_business_id": "1358858", "name": "AGILITY NETWORK", "website": "https://agilitynetwork.org", "domain": "agilitynetwork.org", "phone": "2000446273", "city": "CHICAGO", "state": "IL", "lat": 41.9060382647, "lon": -87.6482917185, "category": "Limited Business License", "atlas_source": "socrata_chicago", "atlas_sources": ["socrata_chicago"], "tier": 3}
{"atlas_business_id": "1359180", "name": "BYCAP INC", "website": "https://bycap.com", "domain": "bycap.com", "phone": "5071648050", "city": "CHICAGO", "state": "IL", "lat": 41.9817199675, "lon": -87.6764183912, "category": "Manufacturing Establishments", "atlas_source": "socrata_chicago", "atlas_sources": ["socrata_chicago"], "tier": 3}
{"atlas_business_id": "1358865", "name": "MARINS CONSTRUCTION", "website": "https://marins-construction.com", "domain": "marins-construction.com", "phone": "2091181506", "city": "CHICAGO", "state": "IL", "lat": 41.9411843063, "lon": -87.7275071417, "category": "Home Repair", "atlas_source": "socrata_chicago", "atlas_sources": ["socrata_chicago"], "tier": 3}
{"atlas_business_id": "1359188", "name": "THE NEON SHOP", "website": "https://the-neon-shop.com", "domain": "the-neon-shop.com", "phone": "2015960785", "city": "CHICAGO", "state": "IL", "lat": 41.9230446382, "lon": -87.6874391423, "category": "Limited Business License", "atlas_source": "socrata_chicago", "atlas_sources": ["socrata_chicago"], "tier": 3}
{"atlas_business_id": "1359071", "name": "bellicon usa LLC", "website": "https://bellicon.com", "domain": "bellicon.com", "phone": "2273714817", "city": "CHICAGO", "state": "IL", "lat": 41.8855823397, "lon": -87.645318316, "category": "Limited Business License", "atlas_source": "socrata_chicago", "atlas_sources": ["socrata_chicago"], "tier": 3}
{"atlas_business_id": "1359187", "name": "GRANT SIGNS INC", "website": "https://grantsigns.net", "domain": "grantsigns.net", "phone": "6088387794", "city": "CHICAGO", "state": "IL", "lat": 41.8706708631, "lon": -87.6862975602, "category": "Hazardous Materials", "atlas_source": "socrata_chicago", "atlas_sources": ["socrata_chicago"], "tier": 3}
{"atlas_business_id": "1359217", "name": "TRANSPORTES ZULETA INC", "website": "https://transporteszuleta.com", "domain": "transporteszuleta.com", "phone": "2406466819", "city": "CHICAGO", "state": "IL", "lat": 41.9610363177, "lon": -87.6885277523, "category": "Limited Business License", "atlas_source": "socrata_chicago", "atlas_sources": ["socrata_chicago"], "tier": 3}
{"atlas_business_id": "1359068", "name": "ENTERPRISE RENT A CAR", "website": "https://enterprise.com", "domain": "enterprise.com", "phone": "2288423360", "city": "CHICAGO", "state": "IL", "lat": 41.8917914631, "lon": -87.6276577412, "category": "Limited Business License", "atlas_source": "socrata_chicago", "atlas_sources": ["socrata_chicago"], "tier": 3}
{"atlas_business_id": "1358951", "name": "OLIVE MOUNT MART", "website": "https://olivemount.org", "domain": "olivemount.org", "phone": "2830200101", "city": "CHICAGO", "state": "IL", "lat": 41.7789401249, "lon": -87.7118685723, "category": "Limited Business License", "atlas_source": "socrata_chicago", "atlas_sources": ["socrata_chicago"], "tier": 3}
{"atlas_business_id": "1358893", "name": "155 HARBOR DRIVE CONDOMINIUM ASSOCIATION", "website": "https://neweastside.com", "domain": "neweastside.com", "phone": "2505263210", "city": "CHICAGO", "state": "IL", "lat": 41.8847505385, "lon": -87.6156039565, "category": "Limited Business License", "atlas_source": "socrata_chicago", "atlas_sources": ["socrata_chicago"], "tier": 3}
{"atlas_business_id": "1358892", "name": "QUICK REFUNDS", "website": "https://quickrefunds.com", "domain": "quickrefunds.com", "phone": "7496969728", "city": "CHICAGO", "state": "IL", "lat": 41.8946887696, "lon": -87.76909651, "category": "Limited Business License", "atlas_source": "socrata_chicago", "atlas_sources": ["socrata_chicago"], "tier": 3}
{"atlas_business_id": "1358982", "name": "K-SP CONSTRUCTION INC.", "website": "https://sp-construction.com", "domain": "sp-construction.com", "phone": "5239113572", "city": "CHICAGO", "state": "IL", "lat": 41.997215932, "lon": -87.6982596976, "category": "Limited Business License", "atlas_source": "socrata_chicago", "atlas_sources": ["socrata_chicago"], "tier": 3}
{"atlas_business_id": "1359070", "name": "SOLO CUP COMPANY", "website": "https://solocup.com", "domain": "solocup.com", "phone": "8002485960", "city": "CHICAGO", "state": "IL", "lat": 41.7173433118, "lon": -87.5902816098, "category": "Hazardous Materials", "atlas_source": "socrata_chicago", "atlas_sources": ["socrata_chicago"], "tier": 3}
{"atlas_business_id": "1359317", "name": "IDEA FURNITURE CO.", "website": "https://ideafurniture.com", "domain": "ideafurniture.com", "phone": "2004852617", "city": "CHICAGO", "state": "IL", "lat": 41.9527336277, "lon": -87.7907945494, "category": "Limited Business License", "atlas_source": "socrata_chicago", "atlas_sources": ["socrata_chicago"], "tier": 3}
{"atlas_business_id": "1358880", "name": "GRAPHIC DESIGN", "website": "https://graphic-design.com", "domain": "graphic-design.com", "phone": null, "city": "CHICAGO", "state": "IL", "lat": 41.9013303873, "lon": -87.6819470731, "category": "Home Occupation", "atlas_source": "socrata_chicago", "atlas_sources": ["socrata_chicago"], "tier": 3}
{"atlas_business_id": "1358873", "name": "PINE GROVE SHOE REPAIR", "website": "https://pinegrove.com", "domain": "pinegrove.com", "phone": "3051325437", "city": "CHICAGO", "state": "IL", "lat": 41.9332256573, "lon": -87.6412092597, "category": "Limited Business License", "atlas_source": "socrata_chicago", "atlas_sources": ["socrata_chicago"], "tier": 3}
{"atlas_business_id": "1359066", "name": "LAB CORP", "website": "https://lab.org", "domain": "lab.org", "phone": "6231236384", "city": "CHICAGO", "state": "IL", "lat": 41.8940631626, "lon": -87.6213958402, "category": "Limited Business License", "atlas_source": "socrata_chicago", "atlas_sources": ["socrata_chicago"], "tier": 3}
{"atlas_business_id": "1358965", "name": "JOSE SANDOVAL", "website": "https://josesandoval.com", "domain": "josesandoval.com", "phone": null, "city": "CHICAGO", "state": "IL", "lat": 41.8551298877, "lon": -87.6686110808, "category": "Mobile Food Dispenser", "atlas_source": "socrata_chicago", "atlas_sources": ["socrata_chicago"], "tier": 3}
{"atlas_business_id": "1358960", "name": "JIFFY LUBE #199", "website": "https://jiffylube.com", "domain": "jiffylube.com", "phone": "8003446933", "city": "CHICAGO", "state": "IL", "lat": 42.004709911, "lon": -87.6902098002, "category": "Motor Vehicle Repair : Engine Only (Class II)", "atlas_source": "socrata_chicago", "atlas_sources": ["socrata_chicago"], "tier": 3}
{"atlas_business_id": "1358943", "name": "THE HAIR EXPERTS", "website": "https://thehair.com", "domain": "thehair.com", "phone": "2008144668", "city": "CHICAGO", "state": "IL", "lat": 41.7962348752, "lon": -87.6304049244, "category": "Limited Business License", "atlas_source": "socrata_chicago", "atlas_sources": ["socrata_chicago"], "tier": 3}
{"atlas_business_id": "1358863", "name": "LIQUID PACKAGING LLC", "website": "https://breitner-filling-machines.com", "domain": "breitner-filling-machines.com", "phone": "2117846336", "city": "CHICAGO", "state": "IL", "lat": 41.724808876, "lon": -87.6470970877, "category": "Hazardous Materials", "atlas_source": "socrata_chicago", "atlas_sources": ["socrata_chicago"], "tier": 3}
{"atlas_business_id": "1359218", "name": "IRMA ROBINSON INC.", "website": "https://irmarobinson.com", "domain": "irmarobinson.com", "phone": "2046068280", "city": "CHICAGO", "state": "IL", "lat": 41.8939642683, "lon": -87.62806283, "category": "Limited Business License", "atlas_source": "socrata_chicago", "atlas_sources": ["socrata_chicago"], "tier": 3}
{"atlas_business_id": "1358889", "name": "J & R CEMENT", "website": "https://cement.org", "domain": "cement.org", "phone": "2024089494", "city": "CHICAGO", "state": "IL", "lat": 41.7109403576, "lon": -87.6219658351, "category": "Home Repair", "atlas_source": "socrata_chicago", "atlas_sources": ["socrata_chicago"], "tier": 3}
{"atlas_business_id": "1358888", "name": "LOWITZ & COMPANY", "website": "https://lowitz.net", "domain": "lowitz.net", "phone": null, "city": "CHICAGO", "state": "IL", "lat": 41.9616193449, "lon": -87.673832674, "category": "Limited Business License", "atlas_source": "socrata_chicago", "atlas_sources": ["socrata_chicago"], "tier": 3}
{"atlas_business_id": "1359238", "name": "G & O THERMAL SUPPLY", "website": "https://thermalsupplyinc.com", "domain": "thermalsupplyinc.com", "phone": "2066244590", "city": "CHICAGO", "state": "IL", "lat": 41.8715821977, "lon": -87.6421864684, "category": "Limited Business License", "atlas_source": "socrata_chicago", "atlas_sources": ["socrata_chicago"], "tier": 3}
{"atlas_business_id": "1358883", "name": "ALL STAR MORTGAGE", "website": "https://allstar.net", "domain": "allstar.net", "phone": null, "city": "CHICAGO", "state": "IL", "lat": 41.7841587013, "lon": -87.7230611924, "category": "Limited Business License", "atlas_source": "socrata_chicago", "atlas_sources": ["socrata_chicago"], "tier": 3}
{"atlas_business_id": "1359343", "name": "DE GIULIO KITCHEN DESIGN", "website": "https://degiuliodesign.com", "domain": "degiuliodesign.com", "phone": "6058043005", "city": "CHICAGO", "state": "IL", "lat": 41.8880742811, "lon": -87.6349552029, "category": "Limited Business License", "atlas_source": "socrata_chicago", "atlas_sources": ["socrata_chicago"], "tier": 3}
{"atlas_business_id": "1359237", "name": "LIFETIME MEMORIES", "website": "https://lifetime-memories.com", "domain": "lifetime-memories.com", "phone": null, "city": "CHICAGO", "state": "IL", "lat": 41.9493034048, "lon": -87.6651413525, "category": "Home Occupation", "atlas_source": "socrata_chicago", "atlas_sources": ["socrata_chicago"], "tier": 3}
{"atlas_business_id": "1359350", "name": "UNDERGROUND STATION", "website": "https://10web.me", "domain": "10web.me", "phone": null, "city": "CHICAGO", "state": "IL", "lat": 41.7546601244, "lon": -87.7413847586, "category": "Limited Business License", "atlas_source": "socrata_chicago", "atlas_sources": ["socrata_chicago"], "tier": 3}
{"atlas_business_id": "1359164", "name": "A+ SECURITY & SAFETY TRAINING", "website": "https://securitysafetyinc.com", "domain": "securitysafetyinc.com", "phone": "2147483647", "city": "CHICAGO", "state": "IL", "lat": 41.7583710005, "lon": -87.6108188938, "category": "Limited Business License", "atlas_source": "socrata_chicago", "atlas_sources": ["socrata_chicago"], "tier": 3}
{"atlas_business_id": "1359224", "name": "YCHARTS, INC.", "website": "https://ycharts.com", "domain": "ycharts.com", "phone": "5461952683", "city": "CHICAGO", "state": "IL", "lat": 41.8896829607, "lon": -87.6371209561, "category": "Limited Business License", "atlas_source": "socrata_chicago", "atlas_sources": ["socrata_chicago"], "tier": 3}
{"atlas_business_id": "1359351", "name": "ASIA DRIVING SCHOOL INC.", "website": "https://asiadrivingschool.com", "domain": "asiadrivingschool.com", "phone": "7737645399", "city": "CHICAGO", "state": "IL", "lat": 41.9975490276, "lon": -87.688509318, "category": "Limited Business License", "atlas_source": "socrata_chicago", "atlas_sources": ["socrata_chicago"], "tier": 3}
{"atlas_business_id": "1359226", "name": "OX CART TRUCKING", "website": "https://oxcart.com", "domain": "oxcart.com", "phone": "2143076923", "city": "HAMMOND", "state": "IN", "lat": 41.9427435011, "lon": -87.654046836, "category": "Limited Business License", "atlas_source": "socrata_chicago", "atlas_sources": ["socrata_chicago"], "tier": 3}
{"atlas_business_id": "1359159", "name": "COMMUNITY CLEANERS", "website": "https://community-cleaners.org", "domain": "community-cleaners.org", "phone": "2236381269", "city": "CHICAGO", "state": "IL", "lat": 41.7935698901, "lon": -87.7770556273, "category": "Limited Business License", "atlas_source": "socrata_chicago", "atlas_sources": ["socrata_chicago"], "tier": 3}
{"atlas_business_id": "1359353", "name": "ADECCO", "website": "https://adecco.org", "domain": "adecco.org", "phone": null, "city": "CHICAGO", "state": "IL", "lat": 41.979323218, "lon": -87.8364364147, "category": "Limited Business License", "atlas_source": "socrata_chicago", "atlas_sources": ["socrata_chicago"], "tier": 3}
{"atlas_business_id": "1359241", "name": "Y & L GEM INC", "website": "https://gem.com", "domain": "gem.com", "phone": "2147483647", "city": "CHICAGO", "state": "IL", "lat": 41.8819215626, "lon": -87.6260630598, "category": "Limited Business License", "atlas_source": "socrata_chicago", "atlas_sources": ["socrata_chicago"], "tier": 3}
{"atlas_business_id": "1359221", "name": "THE RAZOR'S EDGE", "website": "https://therazor.org", "domain": "therazor.org", "phone": "6152132059", "city": "CHICAGO", "state": "IL", "lat": 41.9895655995, "lon": -87.7802890033, "category": "Limited Business License", "atlas_source": "socrata_chicago", "atlas_sources": ["socrata_chicago"], "tier": 3}
{"atlas_business_id": "1358941", "name": "KAAN ENGINEERING INC", "website": "https://kaanengineering.com", "domain": "kaanengineering.com", "phone": "8578696238", "city": "CHICAGO", "state": "IL", "lat": 41.9561544951, "lon": -87.6743743371, "category": "Manufacturing Establishments", "atlas_source": "socrata_chicago", "atlas_sources": ["socrata_chicago"], "tier": 3}
{"atlas_business_id": "1359331", "name": "D & S MIDWEST CONSTRUCTION CO", "website": "https://midwestconstruction.com", "domain": "midwestconstruction.com", "phone": "8886946735", "city": "CHICAGO", "state": "IL", "lat": 41.6846208734, "lon": -87.6529355844, "category": "Limited Business License", "atlas_source": "socrata_chicago", "atlas_sources": ["socrata_chicago"], "tier": 3}
{"atlas_business_id": "1359336", "name": "THE FILMWORKERS CLUB", "website": "https://thefilmworkers.com", "domain": "thefilmworkers.com", "phone": "2050737966", "city": "CHICAGO", "state": "IL", "lat": 41.8926908722, "lon": -87.6213627522, "category": "Limited Business License", "atlas_source": "socrata_chicago", "atlas_sources": ["socrata_chicago"], "tier": 3}
{"atlas_business_id": "1358934", "name": "CHARLES J. FIORE NURSERIES, LLC", "website": "https://fiorelawyer.com", "domain": "fiorelawyer.com", "phone": "2122852290", "city": "CHICAGO", "state": "IL", "lat": 41.8899100139, "lon": -87.6997301033, "category": "Limited Business License", "atlas_source": "socrata_chicago", "atlas_sources": ["socrata_chicago"], "tier": 3}
{"atlas_business_id": "1359229", "name": "INFOCOMM", "website": "https://infocommshow.org", "domain": "infocommshow.org", "phone": "2038071524", "city": "CHICAGO", "state": "IL", "lat": 41.8973037388, "lon": -87.6348041677, "category": "Limited Business License", "atlas_source": "socrata_chicago", "atlas_sources": ["socrata_chicago"], "tier": 3}
{"atlas_business_id": "1359225", "name": "A & W CONSTRUCTION", "website": "https://construction.com", "domain": "construction.com", "phone": "6156820341", "city": "CHICAGO", "state": "IL", "lat": 41.8013430289, "lon": -87.6549962117, "category": "Limited Business License", "atlas_source": "socrata_chicago", "atlas_sources": ["socrata_chicago"], "tier": 3}
{"atlas_business_id": "1359161", "name": "METAL HAVEN", "website": "https://metal-haven.com", "domain": "metal-haven.com", "phone": "2004000500", "city": "CHICAGO", "state": "IL", "lat": 41.9401491376, "lon": -87.6446627167, "category": "Limited Business License", "atlas_source": "socrata_chicago", "atlas_sources": ["socrata_chicago"], "tier": 3}
{"atlas_business_id": "1359077", "name": "THOMAS JEWELERS", "website": "https://thomasjewelers.com", "domain": "thomasjewelers.com", "phone": "2107376317", "city": "CHICAGO", "state": "IL", "lat": 41.9734181856, "lon": -87.8623726394, "category": "Limited Business License", "atlas_source": "socrata_chicago", "atlas_sources": ["socrata_chicago"], "tier": 3}
{"atlas_business_id": "1359143", "name": "H2 AGENCY", "website": "https://h2-agency.com", "domain": "h2-agency.com", "phone": "3366300437", "city": "CHICAGO", "state": "IL", "lat": 41.8744811657, "lon": -87.6293565399, "category": "Home Occupation", "atlas_source": "socrata_chicago", "atlas_sources": ["socrata_chicago"], "tier": 3}
{"atlas_business_id": "1358988", "name": "MARS MOTORS, INC.", "website": "https://rectorseal.com", "domain": "rectorseal.com", "phone": "2018395281", "city": "CHICAGO", "state": "IL", "lat": 41.7910933016, "lon": -87.68411066, "category": "Limited Business License", "atlas_source": "socrata_chicago", "atlas_sources": ["socrata_chicago"], "tier": 3}
{"atlas_business_id": "1359250", "name": "TV GUIDE MEDIA SALES INC.", "website": "https://tvguide.com", "domain": "tvguide.com", "phone": "2000178443", "city": "CHICAGO", "state": "IL", "lat": 41.8877053794, "lon": -87.6205881439, "category": "Limited Business License", "atlas_source": "socrata_chicago", "atlas_sources": ["socrata_chicago"], "tier": 3}
{"atlas_business_id": "1359243", "name": "VICTOR'S BARBER SHOP", "website": "https://victorbarbershop.com", "domain": "victorbarbershop.com", "phone": "2341551944", "city": "CHICAGO", "state": "IL", "lat": 41.7967524478, "lon": -87.754931882, "category": "Limited Business License", "atlas_source": "socrata_chicago", "atlas_sources": ["socrata_chicago"], "tier": 3}
{"atlas_business_id": "1359242", "name": "SUPERIOR FRESH INC", "website": "https://superiorfresh.com", "domain": "superiorfresh.com", "phone": "2127495997", "city": "CHICAGO", "state": "IL", "lat": 41.8575640708, "lon": -87.6390789106, "category": "Limited Business License", "atlas_source": "socrata_chicago", "atlas_sources": ["socrata_chicago"], "tier": 3}
{"atlas_business_id": "1358869", "name": "ORDER EXPRESS INC", "website": "https://orderexpress.com", "domain": "orderexpress.com", "phone": "2644536267", "city": "CHICAGO", "state": "IL", "lat": 41.813661929, "lon": -87.7051743547, "category": "Limited Business License", "atlas_source": "socrata_chicago", "atlas_sources": ["socrata_chicago"], "tier": 3}
{"atlas_business_id": "1359279", "name": "INHABIT", "website": "https://inhabit.com", "domain": "inhabit.com", "phone": null, "city": "CHICAGO", "state": "IL", "lat": 41.90636983, "lon": -87.6727758717, "category": "Home Occupation", "atlas_source": "socrata_chicago", "atlas_sources": ["socrata_chicago"], "tier": 3}
{"atlas_business_id": "1359011", "name": "CORREA CONSTRUCTION", "website": "https://correaconstruction.net", "domain": "correaconstruction.net", "phone": "2545352419", "city": "CHICAGO", "state": "IL", "lat": 41.7332664509, "lon": -87.5539528557, "category": "Home Repair", "atlas_source": "socrata_chicago", "atlas_sources": ["socrata_chicago"], "tier": 3}
{"atlas_business_id": "1359201", "name": "THE NEW YORK TIMES", "website": "https://nytimes.com", "domain": "nytimes.com", "phone": "2061584301", "city": "CHICAGO", "state": "IL", "lat": 41.8880794261, "lon": -87.6240473698, "category": "Limited Business License", "atlas_source": "socrata_chicago", "atlas_sources": ["socrata_chicago"], "tier": 3}
{"atlas_business_id": "1359051", "name": "ADAM'S JEWELRY", "website": "https://adam-jewelry.com", "domain": "adam-jewelry.com", "phone": "2017377602", "city": "CHICAGO", "state": "IL", "lat": 41.9418914872, "lon": -87.8067387049, "category": "Limited Business License", "atlas_source": "socrata_chicago", "atlas_sources": ["socrata_chicago"], "tier": 3}
{"atlas_business_id": "1359026", "name": "H & J TRADE", "website": "https://trade.com", "domain": "trade.com", "phone": "2431711759", "city": "CHICAGO", "state": "IL", "lat": 41.8269993233, "lon": -87.6632268503, "category": "Limited Business License", "atlas_source": "socrata_chicago", "atlas_sources": ["socrata_chicago"], "tier": 3}
{"atlas_business_id": "1359045", "name": "SO'S FASHION", "website": "https://so-fashion.net", "domain": "so-fashion.net", "phone": null, "city": "CHICAGO", "state": "IL", "lat": 42.0130349778, "lon": -87.6748559869, "category": "Limited Business License", "atlas_source": "socrata_chicago", "atlas_sources": ["socrata_chicago"], "tier": 3}
{"atlas_business_id": "1359029", "name": "J.C. ROOFING", "website": "https://roofing.com", "domain": "roofing.com", "phone": "6382792649", "city": "CHICAGO", "state": "IL", "lat": 41.9469763705, "lon": -87.8019928474, "category": "Home Repair", "atlas_source": "socrata_chicago", "atlas_sources": ["socrata_chicago"], "tier": 3}
{"atlas_business_id": "1359191", "name": "GROUP TRAVEL DESIGNERS", "website": "https://grouptravel.org", "domain": "grouptravel.org", "phone": null, "city": "CHICAGO", "state": "IL", "lat": 41.8733035217, "lon": -87.6297709572, "category": "Broker", "atlas_source": "socrata_chicago", "atlas_sources": ["socrata_chicago"], "tier": 3}
{"atlas_business_id": "1359261", "name": "OPEN ARMS HOME HEALTHCARE INC.", "website": "https://openarmshomehealthcare.net", "domain": "openarmshomehealthcare.net", "phone": "2058823529", "city": "CHICAGO", "state": "IL", "lat": 41.9971290835, "lon": -87.7289698679, "category": "Limited Business License", "atlas_source": "socrata_chicago", "atlas_sources": ["socrata_chicago"], "tier": 3}
{"atlas_business_id": "1359200", "name": "A & A DEVELOPMENT, LLC", "website": "https://development.com", "domain": "development.com", "phone": "3137206910", "city": "CHICAGO", "state": "IL", "lat": 41.9934415657, "lon": -87.6996454249, "category": "Residential Real Estate Developer", "atlas_source": "socrata_chicago", "atlas_sources": ["socrata_chicago"], "tier": 3}
{"atlas_business_id": "1359197", "name": "A-EXCELLENT INC", "website": "https://atom.com", "domain": "atom.com", "phone": null, "city": "CHICAGO", "state": "IL", "lat": 41.7507964482, "lon": -87.6410351025, "category": "Motor Vehicle Repair: Engine/Body(Class III)", "atlas_source": "socrata_chicago", "atlas_sources": ["socrata_chicago"], "tier": 3}
{"atlas_business_id": "1359076", "name": "IMPERIAL ZINC CORP", "website": "https://imperialgp.com", "domain": "imperialgp.com", "phone": "2444572124", "city": "CHICAGO", "state": "IL", "lat": 41.7074675186, "lon": -87.5982659864, "category": "Manufacturing Establishments", "atlas_source": "socrata_chicago", "atlas_sources": ["socrata_chicago"], "tier": 3}
{"atlas_business_id": "1359036", "name": "1ST CHOICE FLOWERS INC", "website": "https://1stchoicerec.com", "domain": "1stchoicerec.com", "phone": "6157582703", "city": "CHICAGO", "state": "IL", "lat": 41.9093451903, "lon": -87.7593452321, "category": "Limited Business License", "atlas_source": "socrata_chicago", "atlas_sources": ["socrata_chicago"], "tier": 3}
{"atlas_business_id": "1359144", "name": "PALETERIA AZTECA #2", "website": "https://paleteriaazteca.com", "domain": "paleteriaazteca.com", "phone": "3141925352", "city": "CHICAGO", "state": "IL", "lat": 41.8516756547, "lon": -87.7036958212, "category": "Mobile Food Dispenser", "atlas_source": "socrata_chicago", "atlas_sources": ["socrata_chicago"], "tier": 3}
{"atlas_business_id": "1359203", "name": "LOS ANGELITOS", "website": "https://losangelitos.org", "domain": "losangelitos.org", "phone": "3495498323", "city": "CHICAGO", "state": "IL", "lat": 41.8194414263, "lon": -87.6653755449, "category": "Limited Business License", "atlas_source": "socrata_chicago", "atlas_sources": ["socrata_chicago"], "tier": 3}
{"atlas_business_id": "1359253", "name": "J & D BUMPER INC.", "website": "https://bumper.com", "domain": "bumper.com", "phone": "2224103225", "city": "CHICAGO", "state": "IL", "lat": 41.773888619, "lon": -87.6250100518, "category": "Limited Business License", "atlas_source": "socrata_chicago", "atlas_sources": ["socrata_chicago"], "tier": 3}
{"atlas_business_id": "1359248", "name": "GOSKAND SPORTS", "website": "https://goskandsports.com", "domain": "goskandsports.com", "phone": "2067621694", "city": "CHICAGO", "state": "IL", "lat": 41.7884567907, "lon": -87.8012330627, "category": "Limited Business License", "atlas_source": "socrata_chicago", "atlas_sources": ["socrata_chicago"], "tier": 3}
{"atlas_business_id": "1359282", "name": "HOME COMFORTS", "website": "https://home-comforts.net", "domain": "home-comforts.net", "phone": "2034051614", "city": "CHICAGO", "state": "IL", "lat": 41.9214956903, "lon": -87.6656044023, "category": "Limited Business License", "atlas_source": "socrata_chicago", "atlas_sources": ["socrata_chicago"], "tier": 3}
{"atlas_business_id": "1359256", "name": "LUXY", "website": "https://luxy.com", "domain": "luxy.com", "phone": "2000000000", "city": "CHICAGO", "state": "IL", "lat": 41.8401445582, "lon": -87.661339461, "category": "Limited Business License", "atlas_source": "socrata_chicago", "atlas_sources": ["socrata_chicago"], "tier": 3}
{"atlas_business_id": "1359204", "name": "HOWARD JOHNSON & COMPANY", "website": "https://wyndhamhotels.com", "domain": "wyndhamhotels.com", "phone": "3740206054", "city": "CHICAGO", "state": "IL", "lat": 41.8780109237, "lon": -87.6370585223, "category": "Limited Business License", "atlas_source": "socrata_chicago", "atlas_sources": ["socrata_chicago"], "tier": 3}
{"atlas_business_id": "1359205", "name": "THE INK SPOT INC.", "website": "https://theinkspot.net", "domain": "theinkspot.net", "phone": "9564661507", "city": "CHICAGO", "state": "IL", "lat": 41.9421601056, "lon": -87.6491923854, "category": "Limited Business License", "atlas_source": "socrata_chicago", "atlas_sources": ["socrata_chicago"], "tier": 3}
{"atlas_business_id": "1359046", "name": "B A SECURITY SERVICES, INC", "website": "https://security-services.com", "domain": "security-services.com", "phone": "6140646419", "city": "CHICAGO", "state": "IL", "lat": 41.7735107578, "lon": -87.6059268915, "category": "Limited Business License", "atlas_source": "socrata_chicago", "atlas_sources": ["socrata_chicago"], "tier": 3}
{"atlas_business_id": "1359257", "name": "CMS TROPHIES & PLAQUES INC", "website": "https://cmstrophies.com", "domain": "cmstrophies.com", "phone": "7738739888", "city": "CHICAGO", "state": "IL", "lat": 41.7584567964, "lon": -87.6062211194, "category": "Limited Business License", "atlas_source": "socrata_chicago", "atlas_sources": ["socrata_chicago"], "tier": 3}
{"atlas_business_id": "1359081", "name": "EDENS # 2 INC", "website": "https://edens.com", "domain": "edens.com", "phone": "2025444327", "city": "CHICAGO", "state": "IL", "lat": 41.9971313759, "lon": -87.7283170354, "category": "Limited Business License", "atlas_source": "socrata_chicago", "atlas_sources": ["socrata_chicago"], "tier": 3}
{"atlas_business_id": "1359195", "name": "FAMILY PRIDE", "website": "https://family-pride.com", "domain": "family-pride.com", "phone": null, "city": "CHICAGO", "state": "IL", "lat": 41.9757774378, "lon": -87.7156961814, "category": "Limited Business License", "atlas_source": "socrata_chicago", "atlas_sources": ["socrata_chicago"], "tier": 3}
{"atlas_business_id": "1359060", "name": "AMPCO SYSTEM PARKING, INC.", "website": "https://abm.com", "domain": "abm.com", "phone": "2023102104", "city": "CHICAGO", "state": "IL", "lat": 41.9000966252, "lon": -87.6253593407, "category": "Commercial Garage", "atlas_source": "socrata_chicago", "atlas_sources": ["socrata_chicago"], "tier": 3}
{"atlas_business_id": "1359084", "name": "KOELNMESSE INC.", "website": "https://koelnmesse.com", "domain": "koelnmesse.com", "phone": "2218212574", "city": "CHICAGO", "state": "IL", "lat": 41.9810937801, "lon": -87.8440756275, "category": "Limited Business License", "atlas_source": "socrata_chicago", "atlas_sources": ["socrata_chicago"], "tier": 3}
{"atlas_business_id": "1359028", "name": "PEAK PLANET", "website": "https://peakplanet.com", "domain": "peakplanet.com", "phone": "2142857142", "city": "CHICAGO", "state": "IL", "lat": 41.8720910236, "lon": -87.6334248143, "category": "Home Occupation", "atlas_source": "socrata_chicago", "atlas_sources": ["socrata_chicago"], "tier": 3}
{"atlas_business_id": "1359025", "name": "SPACE ORGANIZATION LTD", "website": "https://space-organization.com", "domain": "space-organization.com", "phone": "2252523293", "city": "CHICAGO", "state": "IL", "lat": 41.9030054013, "lon": -87.644308264, "category": "Limited Business License", "atlas_source": "socrata_chicago", "atlas_sources": ["socrata_chicago"], "tier": 3}
{"atlas_business_id": "1359079", "name": "THE STEWARD GROUP", "website": "https://thesteward.org", "domain": "thesteward.org", "phone": "7496969728", "city": "CHICAGO", "state": "IL", "lat": 41.7940729255, "lon": -87.5837750519, "category": "Home Occupation", "atlas_source": "socrata_chicago", "atlas_sources": ["socrata_chicago"], "tier": 3}
{"atlas_business_id": "1359252", "name": "EVIA TRAVEL, INC.", "website": "https://eviatravel.com", "domain": "eviatravel.com", "phone": "2172590763", "city": "CHICAGO", "state": "IL", "lat": 41.987937498, "lon": -87.7034983022, "category": "Limited Business License", "atlas_source": "socrata_chicago", "atlas_sources": ["socrata_chicago"], "tier": 3}
{"atlas_business_id": "1359087", "name": "T-MOBILE", "website": "https://mobile.net", "domain": "mobile.net", "phone": null, "city": "CHICAGO", "state": "IL", "lat": 41.9324699934, "lon": -87.6449923035, "category": "Limited Business License", "atlas_source": "socrata_chicago", "atlas_sources": ["socrata_chicago"], "tier": 3}
{"atlas_business_id": "1358918", "name": "DOLLAR BUSTER", "website": "https://dollar-buster.com", "domain": "dollar-buster.com", "phone": "2028752217", "city": "CHICAGO", "state": "IL", "lat": 41.8442726732, "lon": -87.7310851025, "category": "Limited Business License", "atlas_source": "socrata_chicago", "atlas_sources": ["socrata_chicago"], "tier": 3}
{"atlas_business_id": "1359139", "name": "AUTO SOUND BARRIER INC", "website": "https://autosound.com", "domain": "autosound.com", "phone": "2018070220", "city": "CHICAGO", "state": "IL", "lat": 41.9757430354, "lon": -87.6889974195, "category": "Limited Business License", "atlas_source": "socrata_chicago", "atlas_sources": ["socrata_chicago"], "tier": 3}
{"atlas_business_id": "1359033", "name": "CUSHIONS", "website": "https://cushion.com", "domain": "cushion.com", "phone": null, "city": "CHICAGO", "state": "IL", "lat": 41.7510468251, "lon": -87.6126433112, "category": "Limited Business License", "atlas_source": "socrata_chicago", "atlas_sources": ["socrata_chicago"], "tier": 3}
{"atlas_business_id": "1359214", "name": "CATALYST CONSULTING GROUP", "website": "https://catalystconsultinggroup.com", "domain": "catalystconsultinggroup.com", "phone": "9999999999", "city": "CHICAGO", "state": "IL", "lat": 41.8867078798, "lon": -87.6343185451, "category": "Limited Business License", "atlas_source": "socrata_chicago", "atlas_sources": ["socrata_chicago"], "tier": 3}
{"atlas_business_id": "1358895", "name": "METRO FORD SALES & SERVICE INC", "website": "https://metrofordmiami.com", "domain": "metrofordmiami.com", "phone": "2096710205", "city": "CHICAGO", "state": "IL", "lat": 41.7758046672, "lon": -87.6834068574, "category": "Motor Vehicle Repair : Engine Only (Class II)", "atlas_source": "socrata_chicago", "atlas_sources": ["socrata_chicago"], "tier": 3}
{"atlas_business_id": "1359273", "name": "THE BUILDING GROUP, INC.", "website": "https://buildinggroup.com", "domain": "buildinggroup.com", "phone": "2050741387", "city": "CHICAGO", "state": "IL", "lat": 41.9001571827, "lon": -87.6217383785, "category": "Limited Business License", "atlas_source": "socrata_chicago", "atlas_sources": ["socrata_chicago"], "tier": 3}
{"atlas_business_id": "1358930", "name": "STARBUCKS COFFEE #2494", "website": "https://starbucks.com", "domain": "starbucks.com", "phone": "2063187100", "city": "CHICAGO", "state": "IL", "lat": 41.9288169155, "lon": -87.6583788366, "category": "Limited Business License", "atlas_source": "socrata_chicago", "atlas_sources": ["socrata_chicago"], "tier": 3}
{"atlas_business_id": "1359131", "name": "A-1 TAX ASSOCIATES INC", "website": "https://taxassociates.com", "domain": "taxassociates.com", "phone": "6516454888", "city": "CHICAGO", "state": "IL", "lat": 41.7498432829, "lon": -87.6886496442, "category": "Limited Business License", "atlas_source": "socrata_chicago", "atlas_sources": ["socrata_chicago"], "tier": 3}
{"atlas_business_id": "1358899", "name": "COMPUTER SOFTWARE TRAINING", "website": "https://computersoftwaretraining.com", "domain": "computersoftwaretraining.com", "phone": "6282682475", "city": "CHICAGO", "state": "IL", "lat": 41.8906307887, "lon": -87.6268291274, "category": "Limited Business License", "atlas_source": "socrata_chicago", "atlas_sources": ["socrata_chicago"], "tier": 3}
{"atlas_business_id": "1359005", "name": "Hard Rock Hotel", "website": "https://hardrock.com", "domain": "hardrock.com", "phone": "2421343639", "city": "CHICAGO", "state": "IL", "lat": 41.8865172887, "lon": -87.6246776864, "category": "Consumption on Premises - Incidental Activity", "atlas_source": "socrata_chicago", "atlas_sources": ["socrata_chicago"], "tier": 3}
{"atlas_business_id": "1358898", "name": "VALCO CO", "website": "https://valco.eu", "domain": "valco.eu", "phone": null, "city": "CHICAGO", "state": "IL", "lat": 41.7464108185, "lon": -87.5782941572, "category": "Limited Business License", "atlas_source": "socrata_chicago", "atlas_sources": ["socrata_chicago"], "tier": 3}
{"atlas_business_id": "1359321", "name": "MILWAUKEE FURNITURE", "website": "https://milwaukeefurniture.net", "domain": "milwaukeefurniture.net", "phone": "2039940416", "city": "CHICAGO", "state": "IL", "lat": 41.9062988635, "lon": -87.6708583348, "category": "Limited Business License", "atlas_source": "socrata_chicago", "atlas_sources": ["socrata_chicago"], "tier": 3}
{"atlas_business_id": "1359004", "name": "WESTON SOLUTIONS, INC", "website": "https://westonsolutions.com", "domain": "westonsolutions.com", "phone": "3998994270", "city": "CHICAGO", "state": "IL", "lat": 41.8824109065, "lon": -87.6371747105, "category": "Limited Business License", "atlas_source": "socrata_chicago", "atlas_sources": ["socrata_chicago"], "tier": 3}
{"atlas_business_id": "1359010", "name": "A & F BUILDING SERVICES & MANAGEMENT", "website": "https://buildingservices.com", "domain": "buildingservices.com", "phone": "8886946735", "city": "CHICAGO", "state": "IL", "lat": 41.9609622351, "lon": -87.7366004356, "category": "Limited Business License", "atlas_source": "socrata_chicago", "atlas_sources": ["socrata_chicago"], "tier": 3}
{"atlas_business_id": "1358933", "name": "NETG", "website": "https://netg.net", "domain": "netg.net", "phone": "6644619142", "city": "CHICAGO", "state": "IL", "lat": 41.9810937801, "lon": -87.8440756275, "category": "Limited Business License", "atlas_source": "socrata_chicago", "atlas_sources": ["socrata_chicago"], "tier": 3}
{"atlas_business_id": "1358994", "name": "P J FURNITURE", "website": "https://furniture.com", "domain": "furniture.com", "phone": "2147483646", "city": "CHICAGO", "state": "IL", "lat": 41.9378485923, "lon": -87.8151493018, "category": "Limited Business License", "atlas_source": "socrata_chicago", "atlas_sources": ["socrata_chicago"], "tier": 3}
{"atlas_business_id": "1358928", "name": "DYSON INC", "website": "https://dyson.de", "domain": "dyson.de", "phone": "2147483647", "city": "CHICAGO", "state": "IL", "lat": 41.8965851912, "lon": -87.6429961817, "category": "Limited Business License", "atlas_source": "socrata_chicago", "atlas_sources": ["socrata_chicago"], "tier": 3}
{"atlas_business_id": "1359324", "name": "NXT CAPITAL, LLC", "website": "https://nxt-capital.org", "domain": "nxt-capital.org", "phone": null, "city": "CHICAGO", "state": "IL", "lat": 41.8855344999, "lon": -87.6366760915, "category": "Limited Business License", "atlas_source": "socrata_chicago", "atlas_sources": ["socrata_chicago"], "tier": 3}
{"atlas_business_id": "1359269", "name": "EMERALD CONCRETE, INC.", "website": "https://emeraldconcrete.net", "domain": "emeraldconcrete.net", "phone": "7737427603", "city": "CHICAGO", "state": "IL", "lat": 41.9871234683, "lon": -87.7739596568, "category": "Home Repair", "atlas_source": "socrata_chicago", "atlas_sources": ["socrata_chicago"], "tier": 3}
{"atlas_business_id": "1359141", "name": "NEW DEVELOPMENT, INC", "website": "https://new-development.com", "domain": "new-development.com", "phone": null, "city": "CHICAGO", "state": "IL", "lat": 41.9733794812, "lon": -87.7484902725, "category": "Home Repair", "atlas_source": "socrata_chicago", "atlas_sources": ["socrata_chicago"], "tier": 3}
{"atlas_business_id": "1359169", "name": "U S THERMAL ENGINEERING", "website": "https://thermal-engineering.com", "domain": "thermal-engineering.com", "phone": "3710212707", "city": "CHICAGO", "state": "IL", "lat": 41.8315057679, "lon": -87.6852127612, "category": "Home Occupation", "atlas_source": "socrata_chicago", "atlas_sources": ["socrata_chicago"], "tier": 3}
{"atlas_business_id": "1359267", "name": "SPINCYCLE COIN LAUNDRY", "website": "https://spincyclecoinlaundry.com", "domain": "spincyclecoinlaundry.com", "phone": "2899976658", "city": "CHICAGO", "state": "IL", "lat": 41.9102822548, "lon": -87.7022739579, "category": "Limited Business License", "atlas_source": "socrata_chicago", "atlas_sources": ["socrata_chicago"], "tier": 3}
{"atlas_business_id": "1359091", "name": "WIZARD CONSTRUCTION", "website": "https://wizard-construction.com", "domain": "wizard-construction.com", "phone": "2545352419", "city": "CHICAGO", "state": "IL", "lat": 41.9421474595, "lon": -87.7827047962, "category": "Home Occupation", "atlas_source": "socrata_chicago", "atlas_sources": ["socrata_chicago"], "tier": 3}
{"atlas_business_id": "1359127", "name": "NHA TRANG CAFE", "website": "https://nhatrang.net", "domain": "nhatrang.net", "phone": "2666666666", "city": "CHICAGO", "state": "IL", "lat": 41.9390716829, "lon": -87.7201922466, "category": "Retail Food Establishment", "atlas_source": "socrata_chicago", "atlas_sources": ["socrata_chicago"], "tier": 3}
{"atlas_business_id": "1358935", "name": "KAWAI INC", "website": "https://kawai.com", "domain": "kawai.com", "phone": null, "city": "CHICAGO", "state": "IL", "lat": 41.9397710833, "lon": -87.6712870155, "category": "Limited Business License", "atlas_source": "socrata_chicago", "atlas_sources": ["socrata_chicago"], "tier": 3}
{"atlas_business_id": "1358490", "name": "IMWC, S.C.", "website": "https://imwc.com", "domain": "imwc.com", "phone": "2679473772", "city": "CHICAGO", "state": "IL", "lat": 41.8678670902, "lon": -87.6256868412, "category": "Limited Business License", "atlas_source": "socrata_chicago", "atlas_sources": ["socrata_chicago"], "tier": 3}
{"atlas_business_id": "1358663", "name": "MARTINA PEREZ", "website": "https://martinaperez.com", "domain": "martinaperez.com", "phone": null, "city": "CHICAGO", "state": "IL", "lat": 41.818686296, "lon": -87.6861306433, "category": "Home Occupation", "atlas_source": "socrata_chicago", "atlas_sources": ["socrata_chicago"], "tier": 3}
{"atlas_business_id": "1358645", "name": "GLOBAL GLASS", "website": "https://global-glass.com", "domain": "global-glass.com", "phone": "4190531186", "city": "CHICAGO", "state": "IL", "lat": 41.9335346034, "lon": -87.7661766444, "category": "Limited Business License", "atlas_source": "socrata_chicago", "atlas_sources": ["socrata_chicago"], "tier": 3}
{"atlas_business_id": "1358666", "name": "AMERICAN FAMILY INSURANCE", "website": "https://amfam.com", "domain": "amfam.com", "phone": "2314958030", "city": "CHICAGO", "state": "IL", "lat": 41.9242504615, "lon": -87.7370189107, "category": "Limited Business License", "atlas_source": "socrata_chicago", "atlas_sources": ["socrata_chicago"], "tier": 3}
{"atlas_business_id": "1358616", "name": "PATRICK MECHANICAL INC.", "website": "https://patrickmechanical.com", "domain": "patrickmechanical.com", "phone": "9074523334", "city": "CHICAGO", "state": "IL", "lat": 41.9529948933, "lon": -87.7729695958, "category": "Home Repair", "atlas_source": "socrata_chicago", "atlas_sources": ["socrata_chicago"], "tier": 3}
{"atlas_business_id": "1358362", "name": "PRESTAR FINANCIAL CORP", "website": "https://prestarfinancial.com", "domain": "prestarfinancial.com", "phone": "2012012686", "city": "CHICAGO", "state": "IL", "lat": 41.9173120745, "lon": -87.7045792423, "category": "Limited Business License", "atlas_source": "socrata_chicago", "atlas_sources": ["socrata_chicago"], "tier": 3}
{"atlas_business_id": "1358674", "name": "Gravity and Momentum", "website": "https://gravityandmomentum.org", "domain": "gravityandmomentum.org", "phone": "2126193872", "city": "CHICAGO", "state": "IL", "lat": 41.9424211613, "lon": -87.6619647485, "category": "Home Occupation", "atlas_source": "socrata_chicago", "atlas_sources": ["socrata_chicago"], "tier": 3}
{"atlas_business_id": "1358671", "name": "INTERNATIONAL AUTO REPAIR", "website": "https://internationalautorepair.net", "domain": "internationalautorepair.net", "phone": "3141925352", "city": "CHICAGO", "state": "IL", "lat": 41.9613129033, "lon": -87.7058623709, "category": "Motor Vehicle Repair : Engine Only (Class II)", "atlas_source": "socrata_chicago", "atlas_sources": ["socrata_chicago"], "tier": 3}
{"atlas_business_id": "1358374", "name": "THE CHILDREN'S CENTER", "website": "https://thechildrencenter.org", "domain": "thechildrencenter.org", "phone": "2545352419", "city": "CHICAGO", "state": "IL", "lat": 41.7484502601, "lon": -87.6829541247, "category": "Day Care Center Under 2 Years", "atlas_source": "socrata_chicago", "atlas_sources": ["socrata_chicago"], "tier": 3}
{"atlas_business_id": "1358726", "name": "URBAN FAMILY FOOD AND MERCH", "website": "https://urbanfamily.org", "domain": "urbanfamily.org", "phone": "2341905000", "city": "CHICAGO", "state": "IL", "lat": 41.7997442378, "lon": -87.6500124196, "category": "Limited Business License", "atlas_source": "socrata_chicago", "atlas_sources": ["socrata_chicago"], "tier": 3}
{"atlas_business_id": "1358381", "name": "JIMMY FOOD, INC.", "website": "https://jimmyfood.com", "domain": "jimmyfood.com", "phone": "2033066739", "city": "CHICAGO", "state": "IL", "lat": 41.8589337905, "lon": -87.7285676926, "category": "Limited Business License", "atlas_source": "socrata_chicago", "atlas_sources": ["socrata_chicago"], "tier": 3}
{"atlas_business_id": "1358717", "name": "CURVES", "website": "https://curves.com", "domain": "curves.com", "phone": "2321212922", "city": "CHICAGO", "state": "IL", "lat": 41.9654844895, "lon": -87.6593348832, "category": "Limited Business License", "atlas_source": "socrata_chicago", "atlas_sources": ["socrata_chicago"], "tier": 3}
{"atlas_business_id": "1358606", "name": "FELD ENTERTAINMENT, INC.", "website": "https://feldentertainment.com", "domain": "feldentertainment.com", "phone": "2050845080", "city": "CHICAGO", "state": "IL", "lat": 41.8907144803, "lon": -87.6242698743, "category": "Limited Business License", "atlas_source": "socrata_chicago", "atlas_sources": ["socrata_chicago"], "tier": 3}
{"atlas_business_id": "1358732", "name": "JET INDUSTRIES INC", "website": "https://jetindustries.net", "domain": "jetindustries.net", "phone": "2025121519", "city": "CHICAGO", "state": "IL", "lat": 41.7822564953, "lon": -87.7910215742, "category": "Limited Business License", "atlas_source": "socrata_chicago", "atlas_sources": ["socrata_chicago"], "tier": 3}
{"atlas_business_id": "1358842", "name": "YASIR CORPORATION", "website": "https://yasir.com", "domain": "yasir.com", "phone": null, "city": "CHICAGO", "state": "IL", "lat": 41.9684475741, "lon": -87.7191630028, "category": "Limited Business License", "atlas_source": "socrata_chicago", "atlas_sources": ["socrata_chicago"], "tier": 3}
{"atlas_business_id": "1358746", "name": "BETTY BRITE CLEANERS", "website": "https://bettybrite.com", "domain": "bettybrite.com", "phone": "2093991845", "city": "CHICAGO", "state": "IL", "lat": 41.7223764587, "lon": -87.5739425662, "category": "Limited Business License", "atlas_source": "socrata_chicago", "atlas_sources": ["socrata_chicago"], "tier": 3}
{"atlas_business_id": "1358372", "name": "UNITED AUTO SERVICE", "website": "https://unitedauto.org", "domain": "unitedauto.org", "phone": "2545352419", "city": "CHICAGO", "state": "IL", "lat": 41.7864374025, "lon": -87.6849001508, "category": "Motor Vehicle Repair: Engine/Body(Class III)", "atlas_source": "socrata_chicago", "atlas_sources": ["socrata_chicago"], "tier": 3}
{"atlas_business_id": "1358770", "name": "BUCK MANAGEMENT GROUP LLC", "website": "https://buckmanagement.com", "domain": "buckmanagement.com", "phone": null, "city": "CHICAGO", "state": "IL", "lat": 41.8914181012, "lon": -87.6279147561, "category": "Limited Business License", "atlas_source": "socrata_chicago", "atlas_sources": ["socrata_chicago"], "tier": 3}
{"atlas_business_id": "1358491", "name": "FIVE STAR FOOD", "website": "https://fivestarfood.com", "domain": "fivestarfood.com", "phone": "8886946735", "city": "CHICAGO", "state": "IL", "lat": 41.9629605566, "lon": -87.7084466463, "category": "Limited Business License", "atlas_source": "socrata_chicago", "atlas_sources": ["socrata_chicago"], "tier": 3}
{"atlas_business_id": "1358614", "name": "VISIONARY EYE CARE PROFESSION", "website": "https://visionaryeye.com", "domain": "visionaryeye.com", "phone": "2044220139", "city": "CHICAGO", "state": "IL", "lat": 41.9768864056, "lon": -87.6685445289, "category": "Limited Business License", "atlas_source": "socrata_chicago", "atlas_sources": ["socrata_chicago"], "tier": 3}
{"atlas_business_id": "1358763", "name": "DAVID SCOTT RICORDATI", "website": "https://davidscott.com", "domain": "davidscott.com", "phone": "2640330041", "city": "CHICAGO", "state": "IL", "lat": 41.8925591585, "lon": -87.6160588808, "category": "Peddler, non-food", "atlas_source": "socrata_chicago", "atlas_sources": ["socrata_chicago"], "tier": 3}
{"atlas_business_id": "1358493", "name": "FOREST GLEN COIN WASH", "website": "https://forestglen.org", "domain": "forestglen.org", "phone": "2083333333", "city": "CHICAGO", "state": "IL", "lat": 41.9771393414, "lon": -87.7545880091, "category": "Limited Business License", "atlas_source": "socrata_chicago", "atlas_sources": ["socrata_chicago"], "tier": 3}
{"atlas_business_id": "1358371", "name": "EMPIRE COOLER SERVICE INC", "website": "https://empirecooler.com", "domain": "empirecooler.com", "phone": "2048177077", "city": "CHICAGO", "state": "IL", "lat": 41.8964391137, "lon": -87.6515129121, "category": "Hazardous Materials", "atlas_source": "socrata_chicago", "atlas_sources": ["socrata_chicago"], "tier": 3}
{"atlas_business_id": "1358728", "name": "DULHAN'S", "website": "https://dulhan.com", "domain": "dulhan.com", "phone": null, "city": "CHICAGO", "state": "IL", "lat": 41.9975115321, "lon": -87.6962129691, "category": "Limited Business License", "atlas_source": "socrata_chicago", "atlas_sources": ["socrata_chicago"], "tier": 3}
{"atlas_business_id": "1358516", "name": "ORDER EXPRESS", "website": "https://orderexpress.com", "domain": "orderexpress.com", "phone": "2644536267", "city": "CHICAGO", "state": "IL", "lat": 41.7871305313, "lon": -87.7032246214, "category": "Limited Business License", "atlas_source": "socrata_chicago", "atlas_sources": ["socrata_chicago"], "tier": 3}
{"atlas_business_id": "1358841", "name": "Fernandez Auto Parts, Inc.", "website": "https://fernandezauto.com", "domain": "fernandezauto.com", "phone": "6374559256", "city": "CHICAGO", "state": "IL", "lat": 41.8494743207, "lon": -87.6736350214, "category": "Limited Business License", "atlas_source": "socrata_chicago", "atlas_sources": ["socrata_chicago"], "tier": 3}
{"atlas_business_id": "1358365", "name": "WORLD GYM", "website": "https://world-gym.com", "domain": "world-gym.com", "phone": "4839646399", "city": "CHICAGO", "state": "IL", "lat": 41.8794108458, "lon": -87.6371039575, "category": "Limited Business License", "atlas_source": "socrata_chicago", "atlas_sources": ["socrata_chicago"], "tier": 3}
{"atlas_business_id": "1358662", "name": "SAN DIEGO CONVENTION CENTER", "website": "https://sandiego.com", "domain": "sandiego.com", "phone": "6193878920", "city": "CHICAGO", "state": "IL", "lat": 41.8948268526, "lon": -87.6243961572, "category": "Limited Business License", "atlas_source": "socrata_chicago", "atlas_sources": ["socrata_chicago"], "tier": 3}
{"atlas_business_id": "1358486", "name": "HAMILTON CONTAINER SERVICE INC", "website": "https://hamiltoncontainer.com", "domain": "hamiltoncontainer.com", "phone": "2025091912", "city": "CHICAGO", "state": "IL", "lat": 41.8372566218, "lon": -87.6977009382, "category": "Limited Business License", "atlas_source": "socrata_chicago", "atlas_sources": ["socrata_chicago"], "tier": 3}
{"atlas_business_id": "1358765", "name": "Simple Dreams", "website": "https://simpledreams.org", "domain": "simpledreams.org", "phone": "2631353927", "city": "CHICAGO", "state": "IL", "lat": 41.9427099785, "lon": -87.6616241622, "category": "Home Occupation", "atlas_source": "socrata_chicago", "atlas_sources": ["socrata_chicago"], "tier": 3}
{"atlas_business_id": "1358767", "name": "BLUE-JAY FASTENERS, LTD.", "website": "https://bluejayfasteners.com", "domain": "bluejayfasteners.com", "phone": null, "city": "CHICAGO", "state": "IL", "lat": 41.9579917756, "lon": -87.6735584526, "category": "Limited Business License", "atlas_source": "socrata_chicago", "atlas_sources": ["socrata_chicago"], "tier": 3}
{"atlas_business_id": "1358517", "name": "PORTER NOVELLI", "website": "https://porternovelli.com", "domain": "porternovelli.com", "phone": "2815185106", "city": "CHICAGO", "state": "IL", "lat": 41.8846320758, "lon": -87.6222479911, "category": "Limited Business License", "atlas_source": "socrata_chicago", "atlas_sources": ["socrata_chicago"], "tier": 3}
{"atlas_business_id": "1358484", "name": "ATLAS STATIONERS INC", "website": "https://atlasstationers.com", "domain": "atlasstationers.com", "phone": "2123708172", "city": "CHICAGO", "state": "IL", "lat": 41.8856214854, "lon": -87.6348888715, "category": "Limited Business License", "atlas_source": "socrata_chicago", "atlas_sources": ["socrata_chicago"], "tier": 3}
{"atlas_business_id": "1358761", "name": "FIVE STAR OIL, INC.", "website": "https://fivestar.com", "domain": "fivestar.com", "phone": "7496969728", "city": "CHICAGO", "state": "IL", "lat": 41.9683362745, "lon": -87.7087827248, "category": "Limited Business License", "atlas_source": "socrata_chicago", "atlas_sources": ["socrata_chicago"], "tier": 3}
{"atlas_business_id": "1358518", "name": "FILTER TECHNOLOGY INC", "website": "https://filter-technology.com", "domain": "filter-technology.com", "phone": null, "city": "CHICAGO", "state": "IL", "lat": 41.8272827295, "lon": -87.7041074284, "category": "Manufacturing Establishments", "atlas_source": "socrata_chicago", "atlas_sources": ["socrata_chicago"], "tier": 3}
{"atlas_business_id": "1358443", "name": "THE SOURCE", "website": "https://thesource.com", "domain": "thesource.com", "phone": "2280020565", "city": "CHICAGO", "state": "IL", "lat": 41.902331663, "lon": -87.7404589449, "category": "Limited Business License", "atlas_source": "socrata_chicago", "atlas_sources": ["socrata_chicago"], "tier": 3}
{"atlas_business_id": "1358445", "name": "QUALITY HOME FURNISHING INC", "website": "https://qualityhome.com", "domain": "qualityhome.com", "phone": "2058879150", "city": "CHICAGO", "state": "IL", "lat": 41.7924947981, "lon": -87.7816909543, "category": "Limited Business License", "atlas_source": "socrata_chicago", "atlas_sources": ["socrata_chicago"], "tier": 3}
{"atlas_business_id": "1358369", "name": "AV VIDEO CENTER", "website": "https://avvideo.net", "domain": "avvideo.net", "phone": null, "city": "CHICAGO", "state": "IL", "lat": 41.9756092271, "lon": -87.6921914701, "category": "Limited Business License", "atlas_source": "socrata_chicago", "atlas_sources": ["socrata_chicago"], "tier": 3}
{"atlas_business_id": "1358706", "name": "POSTLINK INC", "website": "https://postlink.com", "domain": "postlink.com", "phone": "9691043933", "city": "CHICAGO", "state": "IL", "lat": 41.7997021424, "lon": -87.5854380823, "category": "Limited Business License", "atlas_source": "socrata_chicago", "atlas_sources": ["socrata_chicago"], "tier": 3}
{"atlas_business_id": "1358361", "name": "THE TRAVEL AGENCY INC", "website": "https://thetravel.com", "domain": "thetravel.com", "phone": "2145377669", "city": "CHICAGO", "state": "IL", "lat": 41.8824109065, "lon": -87.6371747105, "category": "Limited Business License", "atlas_source": "socrata_chicago", "atlas_sources": ["socrata_chicago"], "tier": 3}
{"atlas_business_id": "1358509", "name": "PIRMA", "website": "https://pirma.org", "domain": "pirma.org", "phone": "2054936319", "city": "CHICAGO", "state": "IL", "lat": 41.7805155194, "lon": -87.722959313, "category": "Limited Business License", "atlas_source": "socrata_chicago", "atlas_sources": ["socrata_chicago"], "tier": 3}
{"atlas_business_id": "1358831", "name": "One Stop Mart", "website": "https://onestopmart.net", "domain": "onestopmart.net", "phone": null, "city": "CHICAGO", "state": "IL", "lat": 41.8780065931, "lon": -87.6339669097, "category": "Limited Business License", "atlas_source": "socrata_chicago", "atlas_sources": ["socrata_chicago"], "tier": 3}
{"atlas_business_id": "1358676", "name": "XEROX CORPORATION", "website": "https://xerox.com", "domain": "xerox.com", "phone": "2125224848", "city": "CHICAGO", "state": "IL", "lat": 41.8870044233, "lon": -87.6243946571, "category": "Limited Business License", "atlas_source": "socrata_chicago", "atlas_sources": ["socrata_chicago"], "tier": 3}
{"atlas_business_id": "1358433", "name": "PALETERIA AZTECA #2", "website": "https://paleteriaazteca.com", "domain": "paleteriaazteca.com", "phone": "3141925352", "city": "CHICAGO", "state": "IL", "lat": 41.8516756547, "lon": -87.7036958212, "category": "Mobile Food Dispenser", "atlas_source": "socrata_chicago", "atlas_sources": ["socrata_chicago"], "tier": 3}
{"atlas_business_id": "1358609", "name": "G-MART", "website": "https://mart.com", "domain": "mart.com", "phone": null, "city": "CHICAGO", "state": "IL", "lat": 41.9296426089, "lon": -87.7072241541, "category": "Limited Business License", "atlas_source": "socrata_chicago", "atlas_sources": ["socrata_chicago"], "tier": 3}
{"atlas_business_id": "1358751", "name": "K9 UNIVERSITY CHICAGO, INC.", "website": "https://k9university.com", "domain": "k9university.com", "phone": null, "city": "CHICAGO", "state": "IL", "lat": 41.8839821963, "lon": -87.7006266039, "category": "Animal Care Facility", "atlas_source": "socrata_chicago", "atlas_sources": ["socrata_chicago"], "tier": 3}
{"atlas_business_id": "1358796", "name": "CHI TOWN TATTOO", "website": "https://chitowntattoo.com", "domain": "chitowntattoo.com", "phone": "7732838696", "city": "CHICAGO", "state": "IL", "lat": 41.9680475356, "lon": -87.7549037356, "category": "Limited Business License", "atlas_source": "socrata_chicago", "atlas_sources": ["socrata_chicago"], "tier": 3}
{"atlas_business_id": "1358507", "name": "FOUR A'S FOOD INC", "website": "https://four-food.com", "domain": "four-food.com", "phone": "7710267644", "city": "CHICAGO", "state": "IL", "lat": 41.8736351475, "lon": -87.7008622377, "category": "Limited Business License", "atlas_source": "socrata_chicago", "atlas_sources": ["socrata_chicago"], "tier": 3}
{"atlas_business_id": "1358832", "name": "PERFECT PITCH AUTO REPAIR", "website": "https://perfectpitch.com", "domain": "perfectpitch.com", "phone": "4445535400", "city": "CHICAGO", "state": "IL", "lat": 41.6971318497, "lon": -87.7011679868, "category": "Motor Vehicle Repair : Engine Only (Class II)", "atlas_source": "socrata_chicago", "atlas_sources": ["socrata_chicago"], "tier": 3}
{"atlas_business_id": "1358793", "name": "MILWAUKEE FURNITURE", "website": "https://milwaukeefurniture.net", "domain": "milwaukeefurniture.net", "phone": "2039940416", "city": "CHICAGO", "state": "IL", "lat": 41.9253692344, "lon": -87.8061582089, "category": "Limited Business License", "atlas_source": "socrata_chicago", "atlas_sources": ["socrata_chicago"], "tier": 3}
{"atlas_business_id": "1358845", "name": "The Packaging Store", "website": "https://thepackaging.com", "domain": "thepackaging.com", "phone": null, "city": "CHICAGO", "state": "IL", "lat": 41.9528105623, "lon": -87.7176377837, "category": "Limited Business License", "atlas_source": "socrata_chicago", "atlas_sources": ["socrata_chicago"], "tier": 3}
{"atlas_business_id": "1358451", "name": "FASTSIGNS", "website": "https://fastsigns.com", "domain": "fastsigns.com", "phone": "2143465679", "city": "CHICAGO", "state": "IL", "lat": 41.9215729822, "lon": -87.673624362, "category": "Limited Business License", "atlas_source": "socrata_chicago", "atlas_sources": ["socrata_chicago"], "tier": 3}
{"atlas_business_id": "1358438", "name": "J M APPLIANCES", "website": "https://appliances.com", "domain": "appliances.com", "phone": null, "city": "CHICAGO", "state": "IL", "lat": 41.7863186719, "lon": -87.6923116056, "category": "Home Repair", "atlas_source": "socrata_chicago", "atlas_sources": ["socrata_chicago"], "tier": 3}
{"atlas_business_id": "1358386", "name": "STREAMLINE STUDIOS/T J HINE PH", "website": "https://streamline-studios.com", "domain": "streamline-studios.com", "phone": "2452546456", "city": "CHICAGO", "state": "IL", "lat": 41.8878926802, "lon": -87.6656610558, "category": "Limited Business License", "atlas_source": "socrata_chicago", "atlas_sources": ["socrata_chicago"], "tier": 3}
{"atlas_business_id": "1358473", "name": "RAVE SPORTS", "website": "https://ravesports.com", "domain": "ravesports.com", "phone": "2018869433", "city": "CHICAGO", "state": "IL", "lat": 41.9384438234, "lon": -87.7682401143, "category": "Limited Business License", "atlas_source": "socrata_chicago", "atlas_sources": ["socrata_chicago"], "tier": 3}
{"atlas_business_id": "1358571", "name": "JA-M PUBLISHERS", "website": "https://japublishers.com", "domain": "japublishers.com", "phone": "4141331324", "city": "CHICAGO", "state": "IL", "lat": 41.8347571336, "lon": -87.6170096531, "category": "Home Occupation", "atlas_source": "socrata_chicago", "atlas_sources": ["socrata_chicago"], "tier": 3}
{"atlas_business_id": "1358380", "name": "HATS PLUS LTD", "website": "https://hats-plus.com", "domain": "hats-plus.com", "phone": null, "city": "CHICAGO", "state": "IL", "lat": 41.9535522484, "lon": -87.7458707042, "category": "Limited Business License", "atlas_source": "socrata_chicago", "atlas_sources": ["socrata_chicago"], "tier": 3}
{"atlas_business_id": "1358612", "name": "SUPER NAILS", "website": "https://super-nails.com", "domain": "super-nails.com", "phone": "5761522764", "city": "CHICAGO", "state": "IL", "lat": 41.9685327937, "lon": -87.6867653379, "category": "Limited Business License", "atlas_source": "socrata_chicago", "atlas_sources": ["socrata_chicago"], "tier": 3}
{"atlas_business_id": "1358804", "name": "BARRON DEVELOPMENT LLC", "website": "https://barrondevelopment.com", "domain": "barrondevelopment.com", "phone": "9547497295", "city": "CHICAGO", "state": "IL", "lat": 41.8659337404, "lon": -87.7497039261, "category": "Residential Real Estate Developer", "atlas_source": "socrata_chicago", "atlas_sources": ["socrata_chicago"], "tier": 3}
{"atlas_business_id": "1358803", "name": "LYDIA C CLARK", "website": "https://lydia-clark.com", "domain": "lydia-clark.com", "phone": "2131082986", "city": "CHICAGO", "state": "IL", "lat": 41.9641048528, "lon": -87.7256166731, "category": "Massage Therapist", "atlas_source": "socrata_chicago", "atlas_sources": ["socrata_chicago"], "tier": 3}
{"atlas_business_id": "1358649", "name": "DSW SHOE WAREHOUSE", "website": "https://dsw.com", "domain": "dsw.com", "phone": "2019968032", "city": "CHICAGO", "state": "IL", "lat": 41.8688897111, "lon": -87.6390989281, "category": "Limited Business License", "atlas_source": "socrata_chicago", "atlas_sources": ["socrata_chicago"], "tier": 3}
{"atlas_business_id": "1358697", "name": "FELD ENTERTAINMENT, INC.", "website": "https://feldentertainment.com", "domain": "feldentertainment.com", "phone": "2225286528", "city": "CHICAGO", "state": "IL", "lat": 41.8907144803, "lon": -87.6242698743, "category": "Limited Business License", "atlas_source": "socrata_chicago", "atlas_sources": ["socrata_chicago"], "tier": 3}
{"atlas_business_id": "1358532", "name": "ENVISION CONSTRUCTION SERVICES INC.", "website": "https://envisionconstruction.com", "domain": "envisionconstruction.com", "phone": "8886946735", "city": "CHICAGO", "state": "IL", "lat": 41.8816642894, "lon": -87.6388874441, "category": "Home Repair", "atlas_source": "socrata_chicago", "atlas_sources": ["socrata_chicago"], "tier": 3}
{"atlas_business_id": "1358808", "name": "BAMBI", "website": "https://bambi.com", "domain": "bambi.com", "phone": "2011113019", "city": "CHICAGO", "state": "IL", "lat": 41.8083959179, "lon": -87.6767212233, "category": "Mobile Food Dispenser", "atlas_source": "socrata_chicago", "atlas_sources": ["socrata_chicago"], "tier": 3}
{"atlas_business_id": "1358531", "name": "TENORIO TIRE SHOP", "website": "https://tenoriotireshop.com", "domain": "tenoriotireshop.com", "phone": "3492586026", "city": "CHICAGO", "state": "IL", "lat": 41.7793067308, "lon": -87.6880451661, "category": "Limited Business License", "atlas_source": "socrata_chicago", "atlas_sources": ["socrata_chicago"], "tier": 3}
{"atlas_business_id": "1358699", "name": "TEYS USA INC.", "website": "https://teysgroup.com", "domain": "teysgroup.com", "phone": "3124927163", "city": "CHICAGO", "state": "IL", "lat": 41.8860483674, "lon": -87.6511329281, "category": "Limited Business License", "atlas_source": "socrata_chicago", "atlas_sources": ["socrata_chicago"], "tier": 3}
{"atlas_business_id": "1358693", "name": "GREATWAY CONSULTING", "website": "https://greatwayconsulting.com", "domain": "greatwayconsulting.com", "phone": "3333333333", "city": "CHICAGO", "state": "IL", "lat": 41.8818995233, "lon": -87.6245070079, "category": "Limited Business License", "atlas_source": "socrata_chicago", "atlas_sources": ["socrata_chicago"], "tier": 3}
{"atlas_business_id": "1358530", "name": "C & H JOINT VENTURES", "website": "https://jointventures.com", "domain": "jointventures.com", "phone": "8775224326", "city": "CHICAGO", "state": "IL", "lat": 41.8447750105, "lon": -87.6254508721, "category": "Home Repair", "atlas_source": "socrata_chicago", "atlas_sources": ["socrata_chicago"], "tier": 3}
{"atlas_business_id": "1358524", "name": "FIRST OPTION OF CHICAGO INC", "website": "https://firstoption.com", "domain": "firstoption.com", "phone": null, "city": "CHICAGO", "state": "IL", "lat": 41.8814072116, "lon": -87.6371550932, "category": "Limited Business License", "atlas_source": "socrata_chicago", "atlas_sources": ["socrata_chicago"], "tier": 3}
{"atlas_business_id": "1358625", "name": "PORTALS LTD", "website": "https://portals.net", "domain": "portals.net", "phone": null, "city": "CHICAGO", "state": "IL", "lat": 41.8960586914, "lon": -87.6343336122, "category": "Limited Business License", "atlas_source": "socrata_chicago", "atlas_sources": ["socrata_chicago"], "tier": 3}
{"atlas_business_id": "1358389", "name": "BELLISSIMA DONNA", "website": "https://bellissimadonna.com", "domain": "bellissimadonna.com", "phone": "2419774726", "city": "CHICAGO", "state": "IL", "lat": 41.9903508687, "lon": -87.7472585411, "category": "Limited Business License", "atlas_source": "socrata_chicago", "atlas_sources": ["socrata_chicago"], "tier": 3}
{"atlas_business_id": "1358383", "name": "ROYAL BEAUTY SALON", "website": "https://royalbeautysalon.net", "domain": "royalbeautysalon.net", "phone": "6447165478", "city": "CHICAGO", "state": "IL", "lat": 41.7214109688, "lon": -87.6560324943, "category": "Limited Business License", "atlas_source": "socrata_chicago", "atlas_sources": ["socrata_chicago"], "tier": 3}
{"atlas_business_id": "1358849", "name": "SCORE GROUP", "website": "https://scorepass.com", "domain": "scorepass.com", "phone": "3333333333", "city": "CHICAGO", "state": "IL", "lat": 41.9620617326, "lon": -87.7671449206, "category": "Limited Business License", "atlas_source": "socrata_chicago", "atlas_sources": ["socrata_chicago"], "tier": 3}
{"atlas_business_id": "1358843", "name": "RICK LEVIN", "website": "https://ricklevin.com", "domain": "ricklevin.com", "phone": "3124402000", "city": "CHICAGO", "state": "IL", "lat": 41.9071659066, "lon": -87.6286322339, "category": "Auctioneer", "atlas_source": "socrata_chicago", "atlas_sources": ["socrata_chicago"], "tier": 3}
{"atlas_business_id": "1358592", "name": "THOS. MOSER CABINETMAKERS, INC", "website": "https://thosmoser.com", "domain": "thosmoser.com", "phone": "2077843332", "city": "CHICAGO", "state": "IL", "lat": 41.9000848449, "lon": -87.6261082294, "category": "Limited Business License", "atlas_source": "socrata_chicago", "atlas_sources": ["socrata_chicago"], "tier": 3}
{"atlas_business_id": "1358585", "name": "THE METRO GROUP, INC.", "website": "https://themetrogroup.com", "domain": "themetrogroup.com", "phone": "2025061909", "city": "CHICAGO", "state": "IL", "lat": 41.9640186719, "lon": -87.7411755713, "category": "Home Repair", "atlas_source": "socrata_chicago", "atlas_sources": ["socrata_chicago"], "tier": 3}
{"atlas_business_id": "1358815", "name": "THE KITCHEN EMPORIUM", "website": "https://thekitchen.com", "domain": "thekitchen.com", "phone": "3035445973", "city": "CHICAGO", "state": "IL", "lat": 41.8797052127, "lon": -87.6683716292, "category": "Limited Business License", "atlas_source": "socrata_chicago", "atlas_sources": ["socrata_chicago"], "tier": 3}
{"atlas_business_id": "1358574", "name": "ACCELERATED REHABILITATION CENTERS", "website": "https://athletico.com", "domain": "athletico.com", "phone": "2173004940", "city": "CHICAGO", "state": "IL", "lat": 41.8867073041, "lon": -87.6341503932, "category": "Limited Business License", "atlas_source": "socrata_chicago", "atlas_sources": ["socrata_chicago"], "tier": 3}
{"atlas_business_id": "1358447", "name": "REACH HIGHER EDUCATION CENTER", "website": "https://reachhigher.org", "domain": "reachhigher.org", "phone": "2643644599", "city": "CHICAGO", "state": "IL", "lat": 41.8453246506, "lon": -87.6384952562, "category": "Limited Business License", "atlas_source": "socrata_chicago", "atlas_sources": ["socrata_chicago"], "tier": 3}
{"atlas_business_id": "1358567", "name": "CLARION ASSOCIATES INC", "website": "https://clarionassociates.com", "domain": "clarionassociates.com", "phone": "2017061408", "city": "CHICAGO", "state": "IL", "lat": 41.8793838777, "lon": -87.6423280535, "category": "Limited Business License", "atlas_source": "socrata_chicago", "atlas_sources": ["socrata_chicago"], "tier": 3}
{"atlas_business_id": "1358556", "name": "Innovative FOTO", "website": "https://innovativefoto.com", "domain": "innovativefoto.com", "phone": "6034591700", "city": "CHICAGO", "state": "IL", "lat": 41.8920941369, "lon": -87.6115698839, "category": "Limited Business License", "atlas_source": "socrata_chicago", "atlas_sources": ["socrata_chicago"], "tier": 3}
{"atlas_business_id": "1358617", "name": "H & R BLOCK TAX SERVICES", "website": "https://blocktax.org", "domain": "blocktax.org", "phone": "2036771074", "city": "CHICAGO", "state": "IL", "lat": 41.7872432262, "lon": -87.7032279582, "category": "Limited Business License", "atlas_source": "socrata_chicago", "atlas_sources": ["socrata_chicago"], "tier": 3}
{"atlas_business_id": "1358712", "name": "L & J FURNITURE", "website": "https://furniture.com", "domain": "furniture.com", "phone": "2147483646", "city": "CHICAGO", "state": "IL", "lat": 41.6881894805, "lon": -87.6208569443, "category": "Limited Business License", "atlas_source": "socrata_chicago", "atlas_sources": ["socrata_chicago"], "tier": 3}
{"atlas_business_id": "1358709", "name": "GABRIEL ENTERPRISES INC", "website": "https://gabrielenterprises.com", "domain": "gabrielenterprises.com", "phone": "2545352419", "city": "CHICAGO", "state": "IL", "lat": 41.9106869498, "lon": -87.6714990095, "category": "Limited Business License", "atlas_source": "socrata_chicago", "atlas_sources": ["socrata_chicago"], "tier": 3}
{"atlas_business_id": "1358703", "name": "COLOR COMMUNICATIONS INC", "website": "https://color-communications.com", "domain": "color-communications.com", "phone": null, "city": "CHICAGO", "state": "IL", "lat": 41.8681006082, "lon": -87.7253697146, "category": "Limited Business License", "atlas_source": "socrata_chicago", "atlas_sources": ["socrata_chicago"], "tier": 3}
{"atlas_business_id": "1358408", "name": "FASTWAY MART CITGO", "website": "https://fastwaymart.com", "domain": "fastwaymart.com", "phone": null, "city": "CHICAGO", "state": "IL", "lat": 41.9757654194, "lon": -87.7852277261, "category": "Limited Business License", "atlas_source": "socrata_chicago", "atlas_sources": ["socrata_chicago"], "tier": 3}
{"atlas_business_id": "1358583", "name": "J. L. CONSTRUCTION INC.", "website": "https://construction.com", "domain": "construction.com", "phone": "6156820341", "city": "CHICAGO", "state": "IL", "lat": 41.8104130929, "lon": -87.6067307553, "category": "Home Repair", "atlas_source": "socrata_chicago", "atlas_sources": ["socrata_chicago"], "tier": 3}
{"atlas_business_id": "1358577", "name": "Checkchangers", "website": "https://checkchangers.com", "domain": "checkchangers.com", "phone": "8777640607", "city": "CHICAGO", "state": "IL", "lat": 41.8571640274, "lon": -87.6615852475, "category": "Limited Business License", "atlas_source": "socrata_chicago", "atlas_sources": ["socrata_chicago"], "tier": 3}
{"atlas_business_id": "1358846", "name": "PROFESSIONAL EYE CENTER", "website": "https://professionaleye.com", "domain": "professionaleye.com", "phone": "7062262020", "city": "CHICAGO", "state": "IL", "lat": 41.799439768, "lon": -87.5884176642, "category": "Limited Business License", "atlas_source": "socrata_chicago", "atlas_sources": ["socrata_chicago"], "tier": 3}
{"atlas_business_id": "1358578", "name": "TOP PRESS", "website": "https://top-press.com", "domain": "top-press.com", "phone": null, "city": "CHICAGO", "state": "IL", "lat": 41.9427578227, "lon": -87.7271469201, "category": "Limited Business License", "atlas_source": "socrata_chicago", "atlas_sources": ["socrata_chicago"], "tier": 3}
{"atlas_business_id": "1358525", "name": "Samgha Corp", "website": "https://samgha.com", "domain": "samgha.com", "phone": null, "city": "CHICAGO", "state": "IL", "lat": 41.9357675187, "lon": -87.6629899914, "category": "Limited Business License", "atlas_source": "socrata_chicago", "atlas_sources": ["socrata_chicago"], "tier": 3}
{"atlas_business_id": "1358407", "name": "Tribune Entertainment Co.", "website": "https://tribunemedia.com", "domain": "tribunemedia.com", "phone": "5578039342", "city": "CHICAGO", "state": "IL", "lat": 41.8904241598, "lon": -87.6239654778, "category": "Limited Business License", "atlas_source": "socrata_chicago", "atlas_sources": ["socrata_chicago"], "tier": 3}
{"atlas_business_id": "1358419", "name": "ACCESS LIVING OF METROPOLITAN CHICAGO", "website": "https://accessliving.net", "domain": "accessliving.net", "phone": "3605550100", "city": "CHICAGO", "state": "IL", "lat": 41.8965175596, "lon": -87.6318281632, "category": "Limited Business License", "atlas_source": "socrata_chicago", "atlas_sources": ["socrata_chicago"], "tier": 3}
{"atlas_business_id": "1358449", "name": "MONTROSE GLASS & MIRROR CO.", "website": "https://chicagowindowrepair.com", "domain": "chicagowindowrepair.com", "phone": null, "city": "CHICAGO", "state": "IL", "lat": 41.9610792777, "lon": -87.7261223973, "category": "Limited Business License", "atlas_source": "socrata_chicago", "atlas_sources": ["socrata_chicago"], "tier": 3}
{"atlas_business_id": "1358460", "name": "ARCHER AVENUE ASSOCIATES, INC", "website": "https://archeravenue.net", "domain": "archeravenue.net", "phone": "2147483647", "city": "CHICAGO", "state": "IL", "lat": 41.839738814, "lon": -87.6621802505, "category": "Single Room Occupancy Class I", "atlas_source": "socrata_chicago", "atlas_sources": ["socrata_chicago"], "tier": 3}
{"atlas_business_id": "1358635", "name": "SPINCYCLE COIN LAUNDRY", "website": "https://spincyclecoinlaundry.com", "domain": "spincyclecoinlaundry.com", "phone": "3106378195", "city": "CHICAGO", "state": "IL", "lat": 41.8054517322, "lon": -87.6647383257, "category": "Limited Business License", "atlas_source": "socrata_chicago", "atlas_sources": ["socrata_chicago"], "tier": 3}
{"atlas_business_id": "1358467", "name": "MURRAY FOOD SERVICES INCORPORATED", "website": "https://murrayfood.com", "domain": "murrayfood.com", "phone": null, "city": "CHICAGO", "state": "IL", "lat": 41.8728084233, "lon": -87.7572477038, "category": "Limited Business License", "atlas_source": "socrata_chicago", "atlas_sources": ["socrata_chicago"], "tier": 3}
{"atlas_business_id": "1358589", "name": "GALE STREET INN", "website": "https://galestreetinn.com", "domain": "galestreetinn.com", "phone": "2025080302", "city": "CHICAGO", "state": "IL", "lat": 41.9700116783, "lon": -87.7627961859, "category": "Limited Business License", "atlas_source": "socrata_chicago", "atlas_sources": ["socrata_chicago"], "tier": 3}
{"atlas_business_id": "1358557", "name": "RAUCH CLAY SALES CORP", "website": "https://rauchclay.com", "domain": "rauchclay.com", "phone": "2830139957", "city": "CHICAGO", "state": "IL", "lat": 41.8381160003, "lon": -87.7083662587, "category": "Limited Business License", "atlas_source": "socrata_chicago", "atlas_sources": ["socrata_chicago"], "tier": 3}
{"atlas_business_id": "1358522", "name": "SALVADOR'S LANDSCAPING", "website": "https://salvador-landscaping.com", "domain": "salvador-landscaping.com", "phone": "3605512048", "city": "CHICAGO", "state": "IL", "lat": 41.8136634097, "lon": -87.6857006779, "category": "Limited Business License", "atlas_source": "socrata_chicago", "atlas_sources": ["socrata_chicago"], "tier": 3}
{"atlas_business_id": "1358630", "name": "PARTY CITY OF FORD CITY #505", "website": "https://partycity.com", "domain": "partycity.com", "phone": "2004852617", "city": "CHICAGO", "state": "IL", "lat": 41.7445245074, "lon": -87.7410543927, "category": "Limited Business License", "atlas_source": "socrata_chicago", "atlas_sources": ["socrata_chicago"], "tier": 3}
{"atlas_business_id": "1358771", "name": "P.O.B CONSTRUCTION", "website": "https://construction.com", "domain": "construction.com", "phone": "6156820341", "city": "CHICAGO", "state": "IL", "lat": 41.9753755398, "lon": -87.753724514, "category": "Home Repair", "atlas_source": "socrata_chicago", "atlas_sources": ["socrata_chicago"], "tier": 3}
{"atlas_business_id": "1358394", "name": "ILLINOIS STATE SOCCER ASSOCIATION, INC.", "website": "https://illinoisstate.edu", "domain": "illinoisstate.edu", "phone": "3094382008", "city": "CHICAGO", "state": "IL", "lat": 41.8553196384, "lon": -87.6464246605, "category": "Limited Business License", "atlas_source": "socrata_chicago", "atlas_sources": ["socrata_chicago"], "tier": 3}
{"atlas_business_id": "1358819", "name": "Classick Studios", "website": "https://classickstudios.com", "domain": "classickstudios.com", "phone": "2412177985", "city": "CHICAGO", "state": "IL", "lat": 41.8957242519, "lon": -87.7010097382, "category": "Limited Business License", "atlas_source": "socrata_chicago", "atlas_sources": ["socrata_chicago"], "tier": 3}
{"atlas_business_id": "1358778", "name": "ENVISIONIT MEDIA, INC.", "website": "https://envisionitagency.com", "domain": "envisionitagency.com", "phone": "3122362000", "city": "CHICAGO", "state": "IL", "lat": 41.8922895123, "lon": -87.6332113769, "category": "Limited Business License", "atlas_source": "socrata_chicago", "atlas_sources": ["socrata_chicago"], "tier": 3}
{"atlas_business_id": "1358774", "name": "XTREME STEAM", "website": "https://xtreme-steam.net", "domain": "xtreme-steam.net", "phone": "2503920686", "city": "CHICAGO", "state": "IL", "lat": 41.6957284329, "lon": -87.6555888924, "category": "Home Repair", "atlas_source": "socrata_chicago", "atlas_sources": ["socrata_chicago"], "tier": 3}
{"atlas_business_id": "1358521", "name": "R M G CONSULTANTS, INC.", "website": "https://consultants.com", "domain": "consultants.com", "phone": "5220718200", "city": "CHICAGO", "state": "IL", "lat": 41.8989979942, "lon": -87.6359206731, "category": "Limited Business License", "atlas_source": "socrata_chicago", "atlas_sources": ["socrata_chicago"], "tier": 3}
{"atlas_business_id": "1358581", "name": "ENTERPRISE RENT A CAR", "website": "https://enterprise.com", "domain": "enterprise.com", "phone": "2288423360", "city": "CHICAGO", "state": "IL", "lat": 41.876244956, "lon": -87.6335315486, "category": "Limited Business License", "atlas_source": "socrata_chicago", "atlas_sources": ["socrata_chicago"], "tier": 3}
{"atlas_business_id": "1358618", "name": "FLUTTER LTD", "website": "https://flutter.com", "domain": "flutter.com", "phone": "2164020240", "city": "CHICAGO", "state": "IL", "lat": 41.884988941, "lon": -87.6566352166, "category": "Limited Business License", "atlas_source": "socrata_chicago", "atlas_sources": ["socrata_chicago"], "tier": 3}
{"atlas_business_id": "1358474", "name": "PIONEER ENGINEERING & ENVIRONMENT SERVICES, INC.", "website": "https://pioneerengineering.com", "domain": "pioneerengineering.com", "phone": "2026060909", "city": "CHICAGO", "state": "IL", "lat": 41.8937930891, "lon": -87.702297983, "category": "Limited Business License", "atlas_source": "socrata_chicago", "atlas_sources": ["socrata_chicago"], "tier": 3}
{"atlas_business_id": "1358455", "name": "JUAN C RODRIGUEZ", "website": "https://juan-rodriguez.com", "domain": "juan-rodriguez.com", "phone": "2549019607", "city": "CHICAGO", "state": "IL", "lat": 41.8504004781, "lon": -87.6804956852, "category": "Peddler, food (fruits and vegtables only)", "atlas_source": "socrata_chicago", "atlas_sources": ["socrata_chicago"], "tier": 3}
{"atlas_business_id": "1358458", "name": "INTERIOR CRAFTS INC", "website": "https://interiorhobbies.ca", "domain": "interiorhobbies.ca", "phone": "2503762052", "city": "CHICAGO", "state": "IL", "lat": 41.8546551818, "lon": -87.6889703133, "category": "Manufacturing Establishments", "atlas_source": "socrata_chicago", "atlas_sources": ["socrata_chicago"], "tier": 3}
{"atlas_business_id": "1358812", "name": "COLOSSEUM BUILDERS INC", "website": "https://colosseumbuilders.com", "domain": "colosseumbuilders.com", "phone": null, "city": "CHICAGO", "state": "IL", "lat": 41.9170509731, "lon": -87.7453177275, "category": "Home Repair", "atlas_source": "socrata_chicago", "atlas_sources": ["socrata_chicago"], "tier": 3}
{"atlas_business_id": "1358628", "name": "DOUGLAS ELECTRIC CO.", "website": "https://douglaselectric.net", "domain": "douglaselectric.net", "phone": "2166895250", "city": "CHICAGO", "state": "IL", "lat": 41.9532657379, "lon": -87.7203945745, "category": "Home Repair", "atlas_source": "socrata_chicago", "atlas_sources": ["socrata_chicago"], "tier": 3}
{"atlas_business_id": "1358466", "name": "INTERSTATE MECHANICAL & CONSTRUCTION", "website": "https://interstatemechanical.com", "domain": "interstatemechanical.com", "phone": "4653966513", "city": "CHICAGO", "state": "IL", "lat": 41.855302018, "lon": -87.6400331902, "category": "Home Repair", "atlas_source": "socrata_chicago", "atlas_sources": ["socrata_chicago"], "tier": 3}
{"atlas_business_id": "1358835", "name": "TERRY JOSEPH PIECZARKA", "website": "https://myshopify.com", "domain": "myshopify.com", "phone": null, "city": "CHICAGO", "state": "IL", "lat": 41.9434913859, "lon": -87.7475571301, "category": "Street Performer", "atlas_source": "socrata_chicago", "atlas_sources": ["socrata_chicago"], "tier": 3}
{"atlas_business_id": "1358565", "name": "E-Z ELECTRICAL SERVICES INC.", "website": "https://electricalservices.ca", "domain": "electricalservices.ca", "phone": "4613081090", "city": "CHICAGO", "state": "IL", "lat": 41.7630713298, "lon": -87.5760869946, "category": "Home Occupation", "atlas_source": "socrata_chicago", "atlas_sources": ["socrata_chicago"], "tier": 3}
{"atlas_business_id": "1358688", "name": "T & A CONSTRUCTION", "website": "https://construction.com", "domain": "construction.com", "phone": "6156820341", "city": "CHICAGO", "state": "IL", "lat": 41.9613039315, "lon": -87.6821685629, "category": "Home Occupation", "atlas_source": "socrata_chicago", "atlas_sources": ["socrata_chicago"], "tier": 3}
{"atlas_business_id": "1358422", "name": "HAWORTH INC", "website": "https://haworth.com", "domain": "haworth.com", "phone": "2606031427", "city": "CHICAGO", "state": "IL", "lat": 41.8880742811, "lon": -87.6349552029, "category": "Limited Business License", "atlas_source": "socrata_chicago", "atlas_sources": ["socrata_chicago"], "tier": 3}
{"atlas_business_id": "1358788", "name": "C & R GIFT SHOP", "website": "https://gift-shop.com", "domain": "gift-shop.com", "phone": "7263517385", "city": "CHICAGO", "state": "IL", "lat": 41.9343897427, "lon": -87.7163602511, "category": "Limited Business License", "atlas_source": "socrata_chicago", "atlas_sources": ["socrata_chicago"], "tier": 3}
{"atlas_business_id": "1358500", "name": "ELITE LOFT BUILDERS INC", "website": "https://eliteloft.net", "domain": "eliteloft.net", "phone": "2015960785", "city": "CHICAGO", "state": "IL", "lat": 41.9246092736, "lon": -87.6687853419, "category": "Limited Business License", "atlas_source": "socrata_chicago", "atlas_sources": ["socrata_chicago"], "tier": 3}
{"atlas_business_id": "1358685", "name": "JEAN ALBANO GALLERY", "website": "https://jeanalbanogallery.com", "domain": "jeanalbanogallery.com", "phone": "3122827797", "city": "CHICAGO", "state": "IL", "lat": 41.8954752477, "lon": -87.6348394138, "category": "Limited Business License", "atlas_source": "socrata_chicago", "atlas_sources": ["socrata_chicago"], "tier": 3}
{"atlas_business_id": "1358545", "name": "DEGERBERG ACADEMY", "website": "https://degerbergacademy.com", "domain": "degerbergacademy.com", "phone": "2438056513", "city": "CHICAGO", "state": "IL", "lat": 41.96710141, "lon": -87.6874161551, "category": "Limited Business License", "atlas_source": "socrata_chicago", "atlas_sources": ["socrata_chicago"], "tier": 3}
{"atlas_business_id": "1358682", "name": "FAMILY DOLLAR #6514", "website": "https://familydollar.com", "domain": "familydollar.com", "phone": "2065315769", "city": "CHICAGO", "state": "IL", "lat": 41.8012514037, "lon": -87.6850355316, "category": "Limited Business License", "atlas_source": "socrata_chicago", "atlas_sources": ["socrata_chicago"], "tier": 3}
{"atlas_business_id": "1358554", "name": "CHRIS CONSTRUCTION INC", "website": "https://chris-construction.com", "domain": "chris-construction.com", "phone": "3333333333", "city": "CHICAGO", "state": "IL", "lat": 41.9494668931, "lon": -87.7811000768, "category": "Home Repair", "atlas_source": "socrata_chicago", "atlas_sources": ["socrata_chicago"], "tier": 3}
{"atlas_business_id": "1358421", "name": "KINSELLA GROUP, INC.", "website": "https://kinsellagroup.com", "domain": "kinsellagroup.com", "phone": "3122291357", "city": "CHICAGO", "state": "IL", "lat": 41.8824340116, "lon": -87.6310370142, "category": "Limited Business License", "atlas_source": "socrata_chicago", "atlas_sources": ["socrata_chicago"], "tier": 3}
{"atlas_business_id": "1358679", "name": "VIVA LA MUSICA", "website": "https://vivalamusica.net", "domain": "vivalamusica.net", "phone": "2025550188", "city": "CHICAGO", "state": "IL", "lat": 41.8443207388, "lon": -87.7113580334, "category": "Limited Business License", "atlas_source": "socrata_chicago", "atlas_sources": ["socrata_chicago"], "tier": 3}
{"atlas_business_id": "1358497", "name": "ALCO CONSTRUCTION CO", "website": "https://alcoconstruction.com", "domain": "alcoconstruction.com", "phone": "3281916346", "city": "CHICAGO", "state": "IL", "lat": 41.9463656209, "lon": -87.7360223509, "category": "Limited Business License", "atlas_source": "socrata_chicago", "atlas_sources": ["socrata_chicago"], "tier": 3}
{"atlas_business_id": "1358668", "name": "PARALLEL PARTNERS INC", "website": "https://parallelpartners.net", "domain": "parallelpartners.net", "phone": "7496969728", "city": "CHICAGO", "state": "IL", "lat": 41.8824109065, "lon": -87.6371747105, "category": "Limited Business License", "atlas_source": "socrata_chicago", "atlas_sources": ["socrata_chicago"], "tier": 3}
{"atlas_business_id": "1358684", "name": "YMN CORP.", "website": "https://ymn.net", "domain": "ymn.net", "phone": null, "city": "CHICAGO", "state": "IL", "lat": 41.8931417575, "lon": -87.6295306022, "category": "Home Occupation", "atlas_source": "socrata_chicago", "atlas_sources": ["socrata_chicago"], "tier": 3}
{"atlas_business_id": "1358426", "name": "MEGA JANITORIAL GROUP", "website": "https://megajanitorial.com", "domain": "megajanitorial.com", "phone": "7781722764", "city": "CHICAGO", "state": "IL", "lat": 41.779642027, "lon": -87.6908253029, "category": "Home Occupation", "atlas_source": "socrata_chicago", "atlas_sources": ["socrata_chicago"], "tier": 3}
{"atlas_business_id": "1358669", "name": "A & B ENTERPRISE", "website": "https://enterprise.com", "domain": "enterprise.com", "phone": "2288423360", "city": "CHICAGO", "state": "IL", "lat": 41.7794739404, "lon": -87.6705992112, "category": "Limited Business License", "atlas_source": "socrata_chicago", "atlas_sources": ["socrata_chicago"], "tier": 3}
{"atlas_business_id": "1358332", "name": "AMAZING LOCK SERVICE INC", "website": "https://amazinglockservice.com", "domain": "amazinglockservice.com", "phone": "2214421920", "city": "CHICAGO", "state": "IL", "lat": 41.9397517875, "lon": -87.6491127358, "category": "Limited Business License", "atlas_source": "socrata_chicago", "atlas_sources": ["socrata_chicago"], "tier": 3}
{"atlas_business_id": "1358331", "name": "HAIR LAB INC", "website": "https://hairlab.com", "domain": "hairlab.com", "phone": null, "city": "CHICAGO", "state": "IL", "lat": 41.7357751569, "lon": -87.6720632343, "category": "Limited Business License", "atlas_source": "socrata_chicago", "atlas_sources": ["socrata_chicago"], "tier": 3}
