{"atlas_business_id": "1368400", "name": "TOOTSIE ROLL INDUSTRIES, LLC", "website": "https://tootsie.com", "domain": "tootsie.com", "phone": "4154010080", "city": "CHICAGO", "state": "IL", "lat": 41.7587279977, "lon": -87.7415356623, "category": "Hazardous Materials", "atlas_source": "socrata_chicago", "atlas_sources": ["socrata_chicago"], "tier": 3}
{"atlas_business_id": "1365589", "name": "RAF ROSSI GOLDPLATED", "website": "https://rafrossigoldplated.com", "domain": "rafrossigoldplated.com", "phone": "2050038549", "city": "CHICAGO", "state": "IL", "lat": 41.9531518582, "lon": -87.7773476896, "category": "Limited Business License", "atlas_source": "socrata_chicago", "atlas_sources": ["socrata_chicago"], "tier": 3}
{"atlas_business_id": "1355426", "name": "AUGUST HOUSE STUDIO", "website": "https://augusthouse.com", "domain": "augusthouse.com", "phone": "2015960785", "city": "CHICAGO", "state": "IL", "lat": 41.943070052, "lon": -87.6814391828, "category": "Limited Business License", "atlas_source": "socrata_chicago", "atlas_sources": ["socrata_chicago"], "tier": 3}
{"atlas_business_id": "1355424", "name": "V FRAAS", "website": "https://fraas.com", "domain": "fraas.com", "phone": "2005232403", "city": "CHICAGO", "state": "IL", "lat": 41.8887410381, "lon": -87.6370805406, "category": "Limited Business License", "atlas_source": "socrata_chicago", "atlas_sources": ["socrata_chicago"], "tier": 3}
{"atlas_business_id": "1355425", "name": "R S OWENS & COMPANY", "website": "https://owens.com", "domain": "owens.com", "phone": "2257021206", "city": "CHICAGO", "state": "IL", "lat": 41.9817166392, "lon": -87.7601258249, "category": "Hazardous Materials", "atlas_source": "socrata_chicago", "atlas_sources": ["socrata_chicago"], "tier": 3}
