{"atlas_business_id": "1376536", "name": "CHICAGO KALBI INC", "website": "https://chicago-kalbi.com", "domain": "chicago-kalbi.com", "phone": "5339537920", "city": "CHICAGO", "state": "IL", "lat": 41.9684086687, "lon": -87.7227687796, "category": "Consumption on Premises - Incidental Activity", "atlas_source": "socrata_chicago", "atlas_sources": ["socrata_chicago"], "tier": 3}
{"atlas_business_id": "1376530", "name": "CHICAGO KALBI INC", "website": "https://chicago-kalbi.com", "domain": "chicago-kalbi.com", "phone": "5339537920", "city": "CHICAGO", "state": "IL", "lat": 41.9684086687, "lon": -87.7227687796, "category": "Consumption on Premises - Incidental Activity", "atlas_source": "socrata_chicago", "atlas_sources": ["socrata_chicago"], "tier": 3}
{"atlas_business_id": "1367298", "name": "EL PUEBLO", "website": "https://elpueblounidoac.org", "domain": "elpueblounidoac.org", "phone": "2044101991", "city": "CHICAGO", "state": "IL", "lat": 41.8443328212, "lon": -87.7268386208, "category": "Limited Business License", "atlas_source": "socrata_chicago", "atlas_sources": ["socrata_chicago"], "tier": 3}
{"atlas_business_id": "1367303", "name": "DIAMOND & GOLD CREATIONS", "website": "https://mygemologist.com", "domain": "mygemologist.com", "phone": "3050532000", "city": "CHICAGO", "state": "IL", "lat": 41.8825670658, "lon": -87.6260787832, "category": "Limited Business License", "atlas_source": "socrata_chicago", "atlas_sources": ["socrata_chicago"], "tier": 3}
{"atlas_business_id": "1367305", "name": "LINCOLN PARK AESTHETICS & SMARTLIPO", "website": "https://lincolnpark.org", "domain": "lincolnpark.org", "phone": "2024012711", "city": "CHICAGO", "state": "IL", "lat": 41.9182472258, "lon": -87.6513388745, "category": "Limited Business License", "atlas_source": "socrata_chicago", "atlas_sources": ["socrata_chicago"], "tier": 3}
{"atlas_business_id": "1364493", "name": "CONTINENTAL PAINTING AND DECORATING", "website": "https://continentalpainting.com", "domain": "continentalpainting.com", "phone": "3122256100", "city": "CHICAGO", "state": "IL", "lat": 41.8512878757, "lon": -87.6253176342, "category": "Limited Business License", "atlas_source": "socrata_chicago", "atlas_sources": ["socrata_chicago"], "tier": 3}
{"atlas_business_id": "1364496", "name": "GOLD CITY", "website": "https://gold-city.net", "domain": "gold-city.net", "phone": "2026061013", "city": "CHICAGO", "state": "IL", "lat": 41.902331663, "lon": -87.7404589449, "category": "Limited Business License", "atlas_source": "socrata_chicago", "atlas_sources": ["socrata_chicago"], "tier": 3}
{"atlas_business_id": "1354330", "name": "FOUR STARS", "website": "https://fourstarsautogroup.com", "domain": "fourstarsautogroup.com", "phone": "4794581721", "city": "CHICAGO", "state": "IL", "lat": 41.8817338769, "lon": -87.6567148782, "category": "Tobacco Vending, Individual", "atlas_source": "socrata_chicago", "atlas_sources": ["socrata_chicago"], "tier": 3}
