{"atlas_business_id": "1380627", "name": "CBRE, Inc.", "website": "https://cbre.org", "domain": "cbre.org", "phone": null, "city": "CHICAGO", "state": "IL", "lat": 41.8847797046, "lon": -87.6308006675, "category": "Limited Business License", "atlas_source": "socrata_chicago", "atlas_sources": ["socrata_chicago"], "tier": 3}
{"atlas_business_id": "1367512", "name": "ADDISON AUTO PARTS-WESTERN INC", "website": "https://addisonauto.com", "domain": "addisonauto.com", "phone": "2345679700", "city": "CHICAGO", "state": "IL", "lat": 41.9476089981, "lon": -87.6884322754, "category": "Motor Vehicle Repair : Engine Only (Class II)", "atlas_source": "socrata_chicago", "atlas_sources": ["socrata_chicago"], "tier": 3}
{"atlas_business_id": "1364713", "name": "Cannon Management Group, LLC", "website": "https://cannonmanagement.com", "domain": "cannonmanagement.com", "phone": "2252026739", "city": "CHICAGO", "state": "IL", "lat": 41.9109378132, "lon": -87.6323175466, "category": "Home Occupation", "atlas_source": "socrata_chicago", "atlas_sources": ["socrata_chicago"], "tier": 3}
{"atlas_business_id": "1352582", "name": "PIONEER ENGINEERING & ENVIRONMENT SERVICES, INC.", "website": "https://pioneerengineering.com", "domain": "pioneerengineering.com", "phone": "2026060910", "city": "CHICAGO", "state": "IL", "lat": 41.8937930891, "lon": -87.702297983, "category": "Limited Business License", "atlas_source": "socrata_chicago", "atlas_sources": ["socrata_chicago"], "tier": 3}
{"atlas_business_id": "1352581", "name": "TODD LEGAL SEARCH INC.", "website": "https://toddlegal.com", "domain": "toddlegal.com", "phone": "3126249224", "city": "CHICAGO", "state": "IL", "lat": 41.8819366747, "lon": -87.6292534799, "category": "Limited Business License", "atlas_source": "socrata_chicago", "atlas_sources": ["socrata_chicago"], "tier": 3}
{"atlas_business_id": "1352579", "name": "JOSE NAVA", "website": "https://wordpress.com", "domain": "wordpress.com", "phone": "2496433114", "city": "CHICAGO", "state": "IL", "lat": 41.8194414263, "lon": -87.6653755449, "category": "Limited Business License", "atlas_source": "socrata_chicago", "atlas_sources": ["socrata_chicago"], "tier": 3}
